Country,L1Name,L2Name,number_of_urban_patches,patch_density,area_weigthed_mean_shape_index,area_weigthed_mean_nearest_neighbor,effective_mesh_size,area_weighted_mean_patch_size,Circuity_average,intersection_density,street_density,street_length_average,streets_per_node_average,urb_perfil,stt_perfil,area,population_density,CentLatitude,CentLongitude
Colombia,Bogota,BOGOTA D.C.,349,0.2135,5.8517,62.0585,5759.6654,28807.7649,1.05505339042833,32.2228266129915,4526.21182840909,82.3965742814994,2.94342233800065,3,1,1645.85188745104,22532.62722,4.31464619511097,-74.1807677374508
Costa Rica,San Jose,SAN JOSE,38,0.8488,3.2862,60.1121,3552.7014,3952.7349,1.05650175748854,100.699002652468,15621.9381595232,89.8713010425908,2.85273848385926,3,5,45.0451333232624,7949.488397,9.9351137208857,-84.1024680227986
El Salvador,San Salvador,SAN SALVADOR,82,1.1475,3.6278,60.8356,2528.5159,4122.6559,1.0763748999577,71.9830858536273,11489.9660563256,91.4388553024421,2.74969678593086,2,1,71.8779965966029,7029.850031,13.6934281090457,-89.2155417676254
El Salvador,San Salvador,ILOPANGO,39,1.1225,3.2264,74.5317,70.3303,330.9973,1.07987335710692,14.2744870970113,3169.38587792581,128.680280903038,2.60830860534124,4,4,34.957473190366,16046.29743,13.692344273687,-89.0954298040575
Chile,Santiago,PROVIDENCIA,6,0.4165,1.6579,60.1951,1148.1287,1284.8413,1.03640175839636,110.032010659612,16755.6105234577,90.8413656944575,3.02665186007773,2,5,14.4321637901585,10797.55745,-33.4315956820935,-70.6119948493626
Peru,Lima,SAN ISIDRO,1,0.103,1.8213,,939.4927,954.9,1.03718488736691,148.731534921923,19807.4557914449,82.5451638849046,3.24050632911392,6,5,9.75583288884699,6086.815373,-12.0989805902171,-77.0366720492595
Chile,Santiago,SANTIAGO,1,0.0432,1.4517,,2313.81,2313.81,1.01735394368523,97.8888245435007,17295.3327240168,100.639091209978,3.30866205774705,6,5,23.1997882351809,12671.56767,-33.4532655768048,-70.6566358459684
Costa Rica,San Jose,SANTA ANA,150,2.445,8.0796,63.7849,175.8051,796.6567,1.16017619603742,17.0353238750298,4528.50040126951,148.672608071504,2.45762711864406,2,4,61.7540357739842,3867.210293,9.92017468467969,-84.1889217202614
Guatemala,Guatemala City,Mixco,81,0.8976,6.0987,68.6686,1230.429,2871.1823,1.08251706731671,72.741706487343,10774.1772936061,85.9786307556253,2.66074332171893,2,1,90.7732347624936,12613.9301,14.6398541587806,-90.5872565770919
Costa Rica,San Jose,MONTES DE OCA,28,1.8007,2.6067,60.5246,512.5744,867.0205,1.06471753358688,57.3172920811909,8800.86383335996,89.7271142885532,2.62040133779264,2,1,15.6497274632127,6487.609599,9.9419249789841,-84.0189701984636
Argentina,Buenos Aires,Comuna 3,1,0.1567,1.1361,,638.01,638.01,1.00215422552313,73.4215295266757,15797.1667061842,119.814998048424,3.77542372881355,6,5,6.40139211250343,29987.46101,-34.6157339428091,-58.403399655469
Guatemala,Guatemala City,Guatemala,219,1.0196,5.9292,63.288,2502.2405,5559.4577,1.07648272496028,68.0718565403433,10572.9949644971,89.2612274262203,2.84584257206208,3,1,216.065797930502,10277.30391,14.6345316319659,-90.4793949864607
Costa Rica,San Jose,CURRIDABAT,29,1.7902,4.2495,60.4308,793.3574,1114.7259,1.08901568872172,65.7051431922517,11726.6625437488,103.21042112745,2.58637302133516,2,1,16.3000938429778,6291.43898,9.91747399297159,-84.0278171509224
Peru,Lima,LIMA,1,0.0467,2.5566,,2142.54,2142.54,1.02502856794783,127.745384134245,18449.5392623169,85.9118694815895,3.18859060402684,6,5,21.550680822306,13856.91749,-12.0510930222502,-77.0489034449147
Costa Rica,San Jose,BELEN,12,0.9635,3.2266,60.079,830.5314,1003.2204,1.10452446236675,43.4598276017103,8250.15554427337,109.019560587687,2.45075757575757,2,1,12.5403166573663,2320.084575,9.98327195112166,-84.1774375047694
Costa Rica,San Jose,FLORES,5,0.7414,2.0001,67.4649,563.2944,610.0253,1.06160100829744,49.6889478329535,9222.13218315418,110.505784444877,2.60444444444444,2,1,6.78219231232147,3503.075268,10.0066101819273,-84.1560687824985
Costa Rica,San Jose,ESCAZU,79,2.285,4.6958,62.2723,576.0363,1291.0823,1.11542270338638,34.3620501993753,7405.42638411762,121.82429966456,2.4708963911525,2,1,34.7767375074064,4085.419219,9.91457568826585,-84.1451671183554
Costa Rica,San Jose,HEREDIA,38,0.1343,3.2484,61.4818,128.9377,1851.9555,1.07168451956467,6.7302637288495,1052.77045643749,88.2470801509035,2.66214645486245,2,2,284.832820411288,6438.708695,10.1496250355821,-84.0747147419844
Argentina,Buenos Aires,Comuna 1,9,0.4958,2.3688,60.0248,1120.3671,1414.4143,1.02125756974374,84.5973705694283,14366.5387890457,96.019109855719,3.37688139674894,2,5,18.2393375776812,16966.14366,-34.6078757795351,-58.3721555387982
Brasil,Recife,RECIFE,362,1.6573,4.8678,60.7408,7464.0704,12131.5888,1.04530660104993,66.1452047113743,10398.5975828936,93.8707408469738,2.93701969260326,3,1,219.849648412976,11688.0817,-8.03922542664248,-34.9331747283796
Brasil,Vitoria,VIT5RIA,128,1.4548,4.1137,61.234,580.689,1326.3512,1.07062405027593,58.1074917746076,7361.70295554368,73.7039508783545,2.77034434293745,2,1,98.6963956772633,8950.801884,-20.3026672669392,-39.1554393726435
Colombia,Bogota,COTA,159,2.8368,3.5478,70.2782,5.4169,48.9338,1.08644136514328,7.56005556006902,2558.28692914457,203.513766041642,2.69043151969981,4,2,56.481066389954,3605.55072,4.78754115497278,-74.1250073745128
Costa Rica,San Jose,GOICOECHEA,37,1.1691,4.0921,62.4131,396.7229,1055.916,1.07873511819305,46.4543613613217,7447.17510596745,92.7526329929911,2.62234580384226,2,1,31.8592260582073,10544.95913,9.9581843224973,-83.989055052317
Peru,Lima,SANTIAGO DE SURCO,3,0.0868,2.7718,60.0013,2471.8319,2920.1424,1.05286086883804,113.437315187459,16126.54970897,86.9874832272579,2.95717199184228,2,5,34.7592852800161,10787.16812,-12.1269927176198,-76.984379960327
El Salvador,San Salvador,ANTIGUO CUSCATLAN,36,1.6738,2.5346,60.392,300.4309,758.392,1.08604186705525,50.0455158272078,8379.60045270964,97.023580347395,2.51495016611295,2,1,21.6403004764557,4538.807319,13.6742984191154,-89.2530967071323
Costa Rica,San Jose,TIBAS,8,0.9595,2.3548,60.1637,630.0311,720.9249,1.06043860467954,87.9499386027668,14069.0557959822,92.5198880964038,2.70197300103842,2,5,8.39113718240597,10669.32916,9.95865951490821,-84.0810705443448
Brasil,Rio de Janeiro,NITER0I,272,2.0333,5.2481,62.5043,411.648,1190.4379,1.10975022146778,37.6973217677978,7945.03608766019,121.639485422585,2.69969372128637,2,1,134.545367207827,10595.44038,-22.9151303880695,-43.0554290973357
Costa Rica,San Jose,ALAJUELITA,36,1.676,3.2356,62.0288,80.1746,295.8787,1.10137174181785,32.3283586445726,5782.45664546789,101.236925629472,2.47808764940239,4,1,21.6218833651596,13911.1386,9.88742187836392,-84.1146275432261
Mexico,Mexico City,Benito Julrez,1,0.0374,1.2638,,2671.38,2671.38,1.00861025037217,131.623788245619,22480.6868753185,95.2816655077924,3.46424702058504,6,5,26.8416526153096,14345.16991,19.3806423462793,-99.1611346405676
Colombia,Villavicencio,VILLAVICENCIO,564,0.4298,3.5668,92.5683,26.7487,978.3313,1.06424814458121,4.03340553581982,741.441384127939,106.545025889837,2.88627450980392,1,6,1321.46394719434,12027.88997,4.09185812995834,-73.4881161687262
Brasil,Recife,OLINDA,11,0.264,2.3312,60.0402,3772.6294,3957.3209,1.03371001658331,96.2302553969868,14706.7966144327,91.2950035820214,2.89611217335882,3,5,41.9514630128104,9713.726912,-7.99309802715358,-34.8661273887485
Peru,Lima,LA VICTORIA,1,0.1094,1.4901,,913.77,913.77,1.03018917108372,166.187853335889,22851.7789587927,82.9485695418896,3.26898734177215,6,5,9.19441444924191,20774.48373,-12.0723328386376,-77.0173856345528
Brasil,Sao Luis,S1O LU0S,707,0.847,7.2107,62.2545,1269.7425,7709.4375,1.04469213587512,20.2156666505227,3386.00964596154,99.6205454581614,2.92926193033604,3,4,840.387818700042,7414.781014,-2.63147937844282,-44.3071276369795
Argentina,Buenos Aires,Comuna 5,1,0.1501,1.3815,,666.36,666.36,1.00097576784952,74.5920867152244,15291.6147733337,115.88147816556,3.7120315581854,6,5,6.67631141492595,27807.94165,-34.619260665473,-58.4213216498695
Colombia,Bogota,FUNZA,132,1.8973,2.8704,78.4915,25.3176,256.0945,1.08120701176809,10.3799893379533,2536.16328390127,141.31212809719,2.69693769799366,4,4,70.0386075871775,9944.604379,4.74305062037632,-74.1977933346332
Colombia,Cali,CALI,304,0.55,5.6481,65.8646,2212.2588,10594.8683,1.05661524571402,36.2143816311561,5458.81919154051,88.9135948528756,3.16140074941018,3,1,556.546849405822,19447.58944,3.39995971614975,-76.5744333134343
Costa Rica,San Jose,ALAJUELA,689,1.7617,6.3975,67.7575,422.8118,2908.4282,1.10971369278684,9.85720928044281,2873.94603987947,161.601790674799,2.40082009226037,2,4,393.721984547908,4794.717152,10.0940774336972,-84.225646553042
Colombia,Barranquilla,BARRANQUILLA,118,0.7313,3.2981,67.415,3271.0341,6840.4929,1.0175537983782,60.2563670266004,9795.97376409194,92.7248285561801,3.25353706847764,3,5,162.439265475116,15377.31325,10.9855345366137,-74.8292105036531
Colombia,Valledupar,VALLEDUPAR,211,0.05,4.6306,116.7267,15.7337,2271.5563,1.05240797590103,1.31153969926331,283.917332945827,121.716069380406,3.27831982801389,1,6,4248.44173846187,13800.17582,10.3819589174455,-73.4638907293725
Brasil,Sao Paulo,S5O PAULO,943,0.62,6.6552,60.8339,46347.2997,79652.2718,1.05262947404765,67.9949644693784,11249.7305922274,98.8709605922038,2.92274425830289,3,1,1528.0543318291,13093.32944,-23.6500805401929,-46.6481108503728
Mexico,Mexico City,Cuauht moc,1,0.0308,1.3123,,3251.88,3251.88,1.01120509461696,123.136084341998,20948.3877243947,95.900128480107,3.45001193032689,6,5,32.6955337382516,16190.11157,19.4313734282856,-99.1490557562777
Peru,Lima,SURQUILLO,1,0.2163,1.7292,,462.42,462.42,1.02171500266979,192.45400277367,23716.4798396893,75.4206399747463,3.14626556016597,6,5,4.65565790831439,20100.55793,-12.1134363133338,-77.0129857545859
Peru,Lima,MIRAFLORES,1,0.1094,2.1361,,731.8359,817.92,1.02161920725754,148.566670653364,21366.9882076556,85.1464412292348,3.37571022727272,6,5,9.20125620361704,10525.60153,-12.1209111982331,-77.0289336383756
Nicaragua,Managua,Managua,608,2.262,5.8899,61.7947,3107.265,8061.0695,1.04524083800643,51.5565679222329,8084.5900335445,90.5547746804129,2.89466115405356,3,1,270.479602541317,9048.265705,12.1065995137645,-86.2523215950226
Colombia,Bogota,MOSQUERA,112,1.0538,3.7185,82.554,26.3446,331.4684,1.07265473685501,10.6064556517246,1989.01313632959,110.111170301259,2.78127233738384,4,4,107.010299884245,8606.198357,4.67290491946318,-74.2362707272944
Guatemala,Guatemala City,Santa Catarina Pinula,183,2.7202,6.8585,67.5118,113.3198,533.9473,1.15880102552705,38.6301003437229,6888.0214938529,99.3593650933175,2.33869769744986,4,1,67.6674400724084,6454.164774,14.5634970748513,-90.4650556601428
Argentina,Buenos Aires,Comuna 2,3,0.4756,2.4513,108.1727,599.2624,614.5202,1.03545453741858,66.4707144553252,13214.2902246631,116.613750240439,3.40748898678414,2,5,6.31857207255204,24503.95083,-34.5877959074651,-58.3954722472048
Chile,Concepcion,SAN PEDRO DE LA PAZ,43,0.4701,3.059,64.0198,75.5826,453.375,1.09075802297214,34.2563837975843,4651.6827979342,77.2993906934171,2.71588645418326,4,1,91.7785140012854,7239.828202,-36.8855273477824,-73.1011021430295
Brasil,Manaus,MANAUS,1172,0.1028,6.9808,64.349,408.3485,19842.0774,1.07201230504964,2.15900676715005,427.68079310732,115.030728311126,2.84043369474562,3,6,11477.4999212764,7946.048638,-2.62591938272678,-60.2596280142344
Costa Rica,San Jose,DESAMPARADOS,140,1.1728,6.0691,65.5358,302.6811,1755.2405,1.12644882172327,16.595764052223,3449.97438234948,117.861348091296,2.47910863509749,2,4,120.151141804941,10695.38563,9.81458120807963,-84.0456468038987
Chile,Santiago,LAS CONDES,39,0.3937,2.4236,60.7879,1309.4943,3497.036,1.05292971804667,44.2555774292521,6607.82028457507,88.1031877169346,2.87212423312883,2,1,99.3321125914023,7383.362985,-33.4209647421297,-70.5006747519852
Argentina,Buenos Aires,Comuna 13,13,0.8836,2.5395,60.0462,1264.0834,1359.9129,1.02610849163386,90.5714527745612,16060.2592063537,98.4546292497182,3.47383112351709,2,5,14.7618257082382,17171.62411,-34.5564456490851,-58.4547287961362
Chile,Santiago,ÑUÑOA,1,0.0593,1.3248,,1685.88,1685.88,1.02480036002967,134.743799274992,18428.9119431637,80.2374716820386,2.99245852187028,6,5,16.9061582963898,11836.01443,-33.4577743789185,-70.598814144388
Colombia,Cartagena,CARTAGENA,244,0.3871,5.4819,251.3975,331.6124,3387.1153,1.10788627735192,3.79015745747635,1063.5483429482,89.0419940585339,2.85836909871244,2,2,245.108550349928,15305.97164,10.4269214372396,-75.4760364582053
Brasil,Belem,BEL1M,591,0.5581,6.9204,61.6916,1062.1294,8643.796,1.0395453335207,11.9797077325668,2219.53008630448,108.395426899471,2.87007796632378,3,4,1066.55356584916,10788.50766,-1.24071070634369,-48.4599134326963
Guatemala,Guatemala City,Villa Nueva,129,1.4499,4.6989,63.8408,630.3108,1691.8958,1.07119444319604,58.3717943374852,8785.19502563939,87.4731903220869,2.72260790824026,2,1,89.5124102197524,16288.32187,14.5400469458351,-90.6064079593367
Costa Rica,San Jose,SANTO DOMINGO,103,4.0794,4.3087,69.4966,107.8015,330.5207,1.08156315135643,25.9143503462281,6157.02462324469,133.96322747753,2.460103626943,4,1,25.3913368928337,5347.662417,9.98553072007066,-84.0663385756409
Colombia,Pereira,DOS QUEBRADAS,61,0.8943,5.2028,61.892,137.4434,900.2718,1.10940032985999,19.9224312969141,3513.63328127243,101.715117933904,2.8890909090909,4,4,68.6663178611082,18161.04869,4.84173062095843,-75.6701543167556
El Salvador,San Salvador,SOYAPANGO,49,1.6384,4.9084,60.4088,775.4983,1450.5127,1.07392865015028,31.405861719793,6265.40283293875,112.01752620798,2.51472754050073,2,1,30.089924245079,16803.63241,13.7037976721485,-89.1434253320716
Chile,Santiago,HUECHURABA,35,0.7792,3.6251,61.0484,280.2552,993.252,1.0953147289831,47.6118371871944,6467.77438474333,79.4243726690813,2.87039937353171,2,1,45.0308185246135,6951.506257,-33.3601962216068,-70.6376352248459
Colombia,Pasto,PASTO,131,0.1093,4.7682,85.6006,18.5538,1251.6818,1.12908794607382,3.38940499420924,595.4417034129,103.269796347951,2.94451503600169,1,6,1206.40643622877,23181.52897,1.0557848325499,-77.1955147333283
Mexico,Mexico City,Naucalpan de JuIrez,78,0.4939,3.9747,61.7584,3113.5914,6822.4752,1.0684345117382,50.9319137391952,8832.23118037398,103.11152175883,2.84024098888542,3,1,158.760969426862,11513.42097,19.4712531458312,-99.2926053942199
Colombia,Medellin,ITAGÜÍ,19,0.9024,2.7376,60.3416,659.9833,1144.9139,1.06433244210068,65.4920940456411,9888.29404672352,88.611648631757,2.8518738845925,2,1,21.1933977715342,20774.63048,6.17992735502617,-75.615348074593
Chile,Santiago,ESTACIÓN CENTRAL,1,0.0696,1.4348,,1435.86,1435.86,1.02750502404663,155.969080540612,19490.880231294,75.6401624494054,3.02737520128824,6,5,14.3938785316838,9811.820094,-33.4640742839182,-70.7007236576233
Colombia,Santa Marta,SANTA MARTA,201,0.0856,4.0841,80.1605,19.8862,1348.717,1.08737627293359,2.51823978367265,440.256295525984,99.8124564968396,3.01912489133584,1,6,2362.36439380043,12943.01713,11.1214241883072,-73.8851873076553
Colombia,Bucaramanga,BUCARAMANGA,87,0.574,6.0574,64.9802,387.9255,2152.5982,1.16700081350903,31.13121572065,5682.38025895364,105.255485689028,3.00054239739649,2,1,152.612093360958,19185.96137,7.15554691752342,-73.1115704934702
Peru,Lima,LINCE,1,0.3637,1.4144,,274.95,274.95,1.00498571063124,142.121271880108,20783.3419089936,86.5527294302148,3.5187969924812,6,5,2.76524403983331,19927.2595,-12.085791398709,-77.0356666566348
Colombia,Fusagasuga,FUSAGASUGA,176,0.9021,4.0223,78.1321,32.9854,584.3825,1.07822175153182,6.6107588348137,1422.60729708723,124.224908084044,2.86840432294977,4,2,196.64913400772,11036.19556,4.32333483840791,-74.3883555189131
Brasil,Salvador,LAURO DE FREITAS,116,2.0111,5.0155,61.3889,1068.1467,2363.2934,1.09031866779313,39.2677551534176,7632.80322391834,114.942491519934,2.68461271274748,2,1,58.0374404163424,6605.639367,-12.8632312205655,-38.3272643334934
Mexico,Mexico City,0lvaro Obregzn,12,0.1252,2.4189,60.1345,4727.2343,6716.9252,1.06273945443361,56.5149467550076,10038.650747615,104.268793546404,2.82650602409638,3,1,96.3992768783288,10751.26869,19.3361755686117,-99.2468197104901
Argentina,San Nicolas de los Arroyos,San Nicolás,167,0.2472,4.0293,79.5752,57.736,1353.4707,1.02941897962203,4.5290503207426,1163.3372712346,144.094010229898,3.20368205727644,1,2,677.40470578321,5100.99748,-33.4841991641753,-60.2932469141644
Colombia,Medellin,MEDELLÍN,219,0.5893,5.1089,63.1948,1604.7076,6832.5412,1.10913688372121,36.5244231460109,6351.93330334963,101.135641433587,2.91702272586537,3,1,374.215355718567,26844.03062,6.2577320568788,-75.6114714856468
Brasil,Salvador,SALVADOR,687,0.9913,12.1955,61.5267,1778.675,8677.0818,1.08853506754953,29.0386092443647,4885.20786345609,98.1184713331631,2.61263570566948,3,1,697.485193920935,19843.78882,-12.8734085283435,-38.5146612624083
Chile,Santiago,SAN MIGUEL,1,0.104,1.2802,,961.29,961.29,1.02074418252315,106.943226494612,17875.522305353,96.8153278792308,3.24776386404293,6,5,9.64062927400027,10229.37927,-33.4990282823496,-70.6514593334581
Argentina,Buenos Aires,Comuna 7,7,0.5639,2.145,60.0694,1106.3997,1166.2599,1.01629376812366,103.894899563004,18143.3774612067,99.4603212400596,3.45434623813002,2,5,12.4548943734748,20109.53182,-34.6384490078252,-58.4526397103585
Costa Rica,San Jose,MORAVIA,55,1.8905,3.303,65.8173,154.1606,570.3782,1.0850318304859,26.9621207311454,5222.37236461928,112.844705453495,2.54347826086956,4,1,29.3003657938312,7402.108529,10.0100202434875,-84.0185086616367
Brasil,Maceio,MACEI0,300,0.5965,8.0425,70.7268,851.1864,5598.7566,1.06594009868916,26.7265584769241,4361.0070052949,95.3312053346447,2.76633616055429,2,1,506.275434290678,12634.07278,-9.52294835368029,-35.7103497616661
Colombia,Bogota,CHIA,239,2.9971,5.4611,64.9302,167.4398,865.8714,1.13866951240317,20.9117090821808,4567.48371033135,123.351167841421,2.37830264211369,4,4,80.289946335888,7262.882119,4.86563427243108,-74.0367033604373
Peru,Cusco,CUSCO,25,0.2511,4.2513,86.6656,49.5042,641.1318,1.16055455437069,8.7262761690153,2005.80807138325,136.63459196607,2.75523202911737,1,2,100.271866607533,15273.81045,-13.4918686020989,-71.9873764973976
Costa Rica,San Jose,SAN PABLO,25,2.9763,2.7995,61.734,215.2818,381.0401,1.06315716845792,46.3552578606016,7705.5604455249,93.0879052052789,2.3655737704918,4,1,8.45643014604325,6056.851466,9.99497866673423,-84.0945791204747
Argentina,Buenos Aires,Comuna 12,1,0.0642,1.4735,,1557.18,1557.18,1.01062700271496,102.376534902792,18590.8308356557,99.8916096223053,3.61910519951632,6,5,15.6090455837102,13570.68547,-34.5680948294152,-58.4910368124922
Chile,Santiago,MACUL,1,0.0779,1.2469,,1284.39,1284.39,1.02866893491061,136.651648245421,18525.7135019156,80.0138371144869,2.87862922417896,6,5,12.8794641162257,9437.398298,-33.4892629684547,-70.5998645960893
Colombia,Ibague,IBAGUE,233,0.1693,4.9659,88.5332,32.0979,1503.8258,1.18497019831406,5.83481949211956,1114.91323777389,126.57731743839,2.64747967479674,1,2,1385.64697861167,17928.6568,4.44978216274191,-75.2533736166008
Chile,Santiago,SAN RAMÓN,1,0.1593,1.3393,,627.66,627.66,1.00969009059568,217.964119297098,24236.6853485504,69.5670676067516,3.18508092892329,6,5,6.29461401456575,15774.30456,-33.540526531093,-70.6423549759538
Colombia,Bucaramanga,FLORIDABLANCA,80,0.8109,4.5895,65.7847,132.8798,1035.8991,1.24517350872422,22.0055320018463,4544.47560833868,121.780983167866,2.78260869565217,4,4,99.3386571984075,20630.54094,7.0793490071622,-73.0691850696099
Mexico,Mexico City,Tlalnepantla de Baz,27,0.336,2.6462,63.1735,3405.4141,4253.373,1.04204549035123,80.5364130843154,13949.5932384975,103.387910498499,2.92852424362531,3,5,80.7709177858438,10254.14547,19.5427453250908,-99.1701463547876
Chile,Santiago,SAN JOAQUÍN,1,0.1006,1.3839,,994.41,994.41,1.01840471093892,154.853168813553,20731.8802797521,78.9580199962965,3.04114285714285,6,5,9.97073558022572,10341.30791,-33.4960116240961,-70.6284150061309
Colombia,Monteria,MONTERIA,258,0.0833,4.1865,117.5562,11.8827,1522.7614,1.06854109104367,1.56579684621255,352.57189149807,128.398458986483,3.16922507860181,1,6,3116.62398082104,16950.89092,8.58645387697593,-75.9580582232557
Brasil,Fortaleza,FORTALEZA,154,0.4891,5.901,60.5324,18584.7275,23783.1947,1.02731619878577,102.620077519563,15516.3075912531,87.7909258466931,3.08129411441597,3,5,317.033477136067,10105.36836,-3.78565649408239,-38.5277011294772
Peru,Arequipa,JOSE LUIS BUSTAMANTE Y RIVERO,8,0.717,2.8064,60.2123,625.5705,823.6191,1.04608578120942,163.661609958743,17981.1997935511,67.2087273317928,2.98540145985401,2,5,11.2243793792758,9200.179364,-16.4314924546694,-71.5234725656456
Argentina,Buenos Aires,San Isidro,19,0.3656,1.8272,60.0126,4818.9115,4987.3324,1.08126189350693,11.5606769984448,3603.05294796118,178.094016389518,2.41830065359477,3,4,26.6420383547981,5892.589008,-34.4881708406076,-58.5377627556606
Argentina,Buenos Aires,Comuna 15,1,0.0698,1.5336,,1432.98,1432.98,1.01760255098356,101.481946407508,17379.3676783438,95.8584862606096,3.51398828887443,6,5,14.3572334940177,12719.92631,-34.5937737678165,-58.4635245714838
Colombia,Manizales,MANIZALES,117,0.2645,4.8596,76.4159,26.4046,739.8656,1.19700238406361,9.70992835117682,1753.0100396947,106.738682556013,2.96017788558722,1,2,445.523369848109,24611.18396,5.08345578106604,-75.5067309528881
Brasil,Rio das Ostras,RIO DAS OSTRAS,103,0.4499,4.2192,70.7105,103.6137,974.3342,1.05754587609234,16.3554711421312,3460.85265975221,123.349922098516,2.90382464772981,1,4,230.137057336369,4363.767812,-22.4542044899759,-41.9468066019099
Mexico,Mexico City,Venustiano Carranza,22,0.6496,2.5358,60.9122,2310.8192,2773.1009,1.02128742724988,125.084079906574,19521.2095930015,88.449820176536,3.31239054290718,2,5,34.0411026181774,15217.65475,19.4304954547241,-99.0931057950551
Mexico,Mexico City,Azcapotzalco,1,0.0298,1.3256,,3353.67,3353.67,1.01856473308015,100.30099481311,16480.1204619149,95.7016159609535,3.20993720993721,6,5,33.6985690550518,12347.13016,19.4853286108798,-99.1821069382393
Chile,Curico,CURICÓ,395,0.2964,3.2103,81.9224,21.8713,1082.9296,1.08723852215487,3.017826185348,626.917906457375,119.879861430221,2.75414364640884,1,6,1336.06104273863,5084.891252,-35.1989774318299,-70.8957960375049
Mexico,Mexico City,Gustavo A. Madero,7,0.0796,2.3643,60.0096,6820.1262,7733.985,1.06106260023429,111.580644341004,18171.794852546,94.4298367674349,3.15737917013215,3,5,88.3665805860255,15109.23008,19.5040652076401,-99.1158642067724
Colombia,Duitama,DUITAMA,97,0.4147,3.5755,68.3006,22.1778,585.2512,1.10314373266467,7.73784685258621,1403.64231479195,101.56371887266,2.76805437553101,1,2,235.595254691646,12456.7638,5.89047092922262,-73.0669128480033
Mexico,Mexico City,Cuajimalpa de Morelos,32,0.4478,4.9588,63.1475,590.8718,1896.058,1.12529781122405,24.6643516464349,5630.32567579519,131.376546561386,2.48569157392686,2,1,71.8445806077425,8368.271675,19.3246343034648,-99.31072852275
Chile,Santiago,LA FLORIDA,31,0.4378,2.8896,61.0235,1642.4225,3365.0884,1.04063829176668,98.0277409566901,11825.6487322593,72.0832947370125,2.87272059723412,2,5,71.030913617364,11133.33449,-33.5281266667047,-70.5398495953022
Brasil,Volta Redonda,VOLTA REDONDA,130,0.7125,4.5455,63.4222,516.9051,2436.0146,1.10087980833292,21.9466269116141,4128.21452691939,113.142646038834,2.84090909090909,2,4,183.353916581618,6693.50173,-22.4912335180713,-44.0885537715947
Argentina,Buenos Aires,Vicente López,5,0.1467,1.9558,60.0,3317.2982,3361.3206,1.01641309339472,111.276177273804,19064.891147932,96.4854236233335,3.39342235410484,3,5,34.1762279507715,8097.442209,-34.5278858683057,-58.5050625983436
Argentina,Buenos Aires,Lomas de Zamora,3,0.0338,1.7827,67.114,8599.2392,8690.4296,1.00981392856378,83.0820580488128,15774.0785214631,105.271116084173,3.4464991710241,3,5,88.900060656424,7081.478747,-34.756025701953,-58.4241855639547
Brasil,Rio de Janeiro,RIO DE JANEIRO,1419,1.1827,7.5711,61.7331,9619.5629,22157.9383,1.06281188680582,47.4925830663274,8635.78895911249,106.586398992112,2.77857071635115,3,1,1205.91461449916,12197.60693,-22.9231873848585,-43.4502572955339
Brasil,Sao Paulo,GUARULHOS,161,0.5052,4.5477,62.1426,6093.79,13008.5202,1.05682882619817,40.4154476665506,7509.15922005848,111.257695729224,2.88073516681094,3,1,320.149862170369,8428.416118,-23.40269298654,-46.4548742916185
Argentina,Buenos Aires,Comuna 11,1,0.0715,1.772,,1397.7,1397.7,1.00276804772973,106.913437071146,18807.9303117842,98.3009697324536,3.67729083665338,6,5,14.0019817995731,13576.59011,-34.608107964787,-58.4973157586287
Colombia,Neiva,NEIVA,154,0.1254,6.046,85.6752,47.8137,2153.1514,1.038672142879,5.1467384602389,670.772479705193,75.6898344675584,3.28791966426858,1,2,1237.28843989177,12113.60029,3.01450621695164,-75.309516373398
Mexico,Monterrey,Monterrey,159,0.4896,5.1901,60.605,7025.7748,14580.7707,1.05737662577504,74.7180057294516,11510.3021454444,91.2748251916944,3.05080976911388,3,5,326.146285116847,7218.385076,25.6447872807567,-100.310999998341
Chile,Santiago,QUILICURA,17,0.2967,2.6338,61.8518,1938.962,3301.7072,1.07049920866287,69.7070275125379,9444.52130633967,81.2851639371982,2.88571428571428,2,1,57.4834438217764,5203.929086,-33.3554762412549,-70.7353612890345
Brasil,Sao Paulo,DIADEMA,14,0.4546,2.0094,67.0979,2284.4002,2606.695,1.060167974173,107.866753098098,16212.1138455686,91.7568757786236,2.89083769633507,2,5,30.9363163732684,14729.36373,-23.6972875405385,-46.6114242052593
Colombia,Cali,YUMBO,137,0.5934,3.8111,72.1482,30.2665,437.4758,1.12894964385667,5.4704996138032,1315.44223164211,136.730661864171,2.84644670050761,4,2,232.519895767925,6514.098615,3.59609105200925,-76.5112316434283
Chile,Valdivia,VALDIVIA,269,0.2788,4.412,70.0865,18.1796,932.5873,1.12535282328546,4.41430623016492,956.114758883845,125.324236713493,2.79187238890998,1,2,967.082884016523,8442.286121,-39.8188667264123,-73.1705344884713
Argentina,Buenos Aires,Tres de Febrero,19,0.4112,2.0983,61.1922,3259.3223,3840.9086,1.01026799152614,89.7098221726652,15601.0325314399,98.5646434600341,3.43553206159503,3,5,46.3159986205617,8756.296177,-34.596789668496,-58.5795506368741
Chile,Puerto Montt,PUERTO MONTT,575,0.3436,3.7423,72.9666,30.9994,1334.6188,1.08811452789358,4.15678896535256,945.029889374856,131.870602822559,2.75841789667896,1,2,1675.33162208761,5718.298989,-41.4882224020286,-72.7954731150649
Colombia,Bogota,SOACHA,83,0.4552,4.3988,74.4333,150.0042,1464.554,1.05835782966359,20.4323129488961,2874.16276007632,80.5900945906819,2.80970625798212,2,4,183.630703454094,24417.2423,4.53699380036255,-74.2276673948331
Argentina,San Miguel de Tucuman-Tafi Viejo,Capital,51,0.5624,2.7743,60.6778,5564.9107,7013.9634,1.01730432871386,78.5501855463868,14574.9751013706,104.692044604946,3.3067858067858,3,5,91.0373406537285,7855.327216,-26.8352190540383,-65.2186419411
Argentina,Buenos Aires,La Matanza,289,0.8803,6.5192,61.1865,7933.3924,15776.9919,1.01228544687854,58.4550689854949,11065.2927102605,104.831802480397,3.42813605977192,3,5,329.039043727289,10767.86544,-34.7712147809828,-58.625329150821
Brasil,Sao Paulo,SANTO ANDRT,97,0.552,2.2285,61.197,2205.5072,5833.1127,1.05932322015946,45.0213961307178,7565.77880387249,100.382124988237,3.01837240757439,2,1,176.582706962651,10482.87322,-23.7279603350732,-46.4415865455202
Argentina,Buenos Aires,Merlo,234,1.345,4.454,60.7372,2795.775,6290.3473,1.00609413154477,48.8875041055115,10181.0235468469,114.724799252622,3.51553354344889,3,5,174.379939331754,6875.195609,-34.711963333161,-58.7419744693496
Brasil,Santos,SANTOS,64,0.2281,4.1654,60.867,410.5405,3112.293,1.05558182368473,13.7153551310761,2441.24307549468,104.684499760997,3.08387850467289,2,4,281.946764268478,11668.13921,-23.8687783763859,-46.2915144612721
Chile,Santiago,PEÑALOLÉN,45,0.8393,2.8079,60.1838,1047.6831,2200.7588,1.06262970831549,79.1784859970919,10496.3805016678,78.2058963972878,2.8883785942492,2,5,53.7646046952242,9247.558267,-33.485194725556,-70.5250931516499
Brasil,Natal,NATAL,147,0.8791,5.1235,61.4545,1992.5719,3894.8811,1.03585910531806,89.3881104888101,12658.2782849941,85.6261634116323,3.02666909665269,2,5,168.366910517523,9681.450934,-5.80318242358206,-35.2289134042738
Chile,Santiago,LA GRANJA,1,0.0991,1.3208,,1009.26,1009.26,1.02340473051365,205.957567244492,23926.4595771385,70.5836774523907,3.09717314487632,6,5,10.1185891243611,13974.99158,-33.5355765265277,-70.6224850959692
El Salvador,San Salvador,MEJICANOS,44,2.258,3.6596,60.2255,404.0498,874.2837,1.08423144646946,52.4024255232372,7918.46762906729,85.8705617615325,2.48382749326145,2,1,19.6174125479009,16639.57181,13.7378892166707,-89.2187837425578
Argentina,Resistencia,San Ferdo,373,0.1037,6.9062,67.2295,76.3491,4571.7541,1.06130488610624,2.79060725574265,678.148319802556,136.046765572635,3.13012865090403,2,6,3612.47537762786,6656.71617,-27.7213342049288,-59.115266497185
Brasil,Belo Horizonte,BELO HORIZONTE,229,0.691,6.4738,60.3356,18888.5596,24544.8484,1.03798952789767,85.4055020656058,15003.2759261909,103.717640435126,3.10561913004455,3,5,333.116711592487,9569.043199,-19.9027392965681,-43.9598835098083
Colombia,Pereira,PEREIRA,400,0.6573,5.8277,82.1784,35.5541,969.86,1.18824789021081,6.73184114958455,1655.05298641155,140.245456801714,2.81867810489374,1,2,612.908104680192,20488.31872,4.78162693763299,-75.7126715469562
Argentina,Buenos Aires,Morón,14,0.2532,1.7863,360.9641,4421.7825,4932.3124,1.00625793946833,86.0390226073063,14945.586870371,98.1411013027429,3.48372093023255,3,5,55.4283376947034,6540.921606,-34.6502554054005,-58.6200087491385
Colombia,Barranquilla,SOLEDAD,48,0.7825,3.7287,61.1611,590.5468,1708.7148,1.01686072566537,92.1568583753652,9859.85512446722,62.0275655116393,3.1362700047536,2,5,61.7642582477784,25265.65536,10.9055593842844,-74.7768977615458
Colombia,Tunja,TUNJA,36,0.3053,3.2102,104.1144,6.3488,124.5304,1.06291054977644,19.8002528372983,3119.87665022511,93.0918857011572,2.93455882352941,5,4,118.78636193824,28470.16353,5.51800473355611,-73.3784157651304
Peru,Trujillo,TRUJILLO,11,0.2878,2.5271,60.2395,1931.0602,2712.5171,1.02678387314854,111.985065668735,14758.1212536044,78.2760644886344,3.16238947595428,2,5,38.4694153124271,11483.52759,-8.11258545945569,-79.0238582662469
Colombia,Armenia,ARMENIA,162,1.401,6.6137,65.959,196.6015,1312.8975,1.07490704999614,28.938717415015,4133.66441536102,82.988153099366,2.81207729468599,2,1,116.522095697662,16684.28043,4.49689683149576,-75.7276278948505
Costa Rica,San Jose,CARTAGO,268,0.9652,4.689,67.7505,128.1119,1548.1563,1.0562617324468,3.10644525566122,705.460757399138,128.755223897588,3.06370875995449,2,6,245.296452146169,6539.065798,9.81570664626665,-83.9213447684707
Argentina,Buenos Aires,Comuna 10,1,0.0807,1.6596,,1239.3,1239.3,1.00835919954645,110.519146532265,18956.2618407429,97.3435364048028,3.5644128113879,6,5,12.4322349847216,13666.74736,-34.6298111359459,-58.5030250282798
Chile,Santiago,PEDRO AGUIRRE CERDA,1,0.1141,1.3182,,876.42,876.42,1.01404066599082,195.293994913566,24480.3322348325,75.2985182252683,3.02546777546777,6,5,8.78163202488138,13806.6224,-33.491493670435,-70.6754532825756
Brasil,Rio de Janeiro,MESQUITA,2,0.0512,1.8576,134.1641,467.3667,1350.99,1.0345538606662,40.2583386015695,6721.08913635505,98.0957273274112,2.9851321585903,2,1,39.2465276731116,12525.32653,-22.7998552934661,-43.4503652156809
Brasil,Vitoria,VILA VELHA,190,0.9052,4.7747,62.8224,562.7188,2477.9495,1.04379911192145,35.9434493917339,6082.92198931089,96.894095917255,3.05248014731269,2,1,211.137220506868,9148.326463,-20.433988271321,-40.3782521501245
Guatemala,Guatemala City,Petapa,44,1.85,5.247,60.8856,531.3816,1069.4813,1.08764397853633,71.5532727458154,10854.3328626881,90.59391256327,2.81857976653696,2,1,23.9122535467821,14837.20781,14.5063303115741,-90.5554669325121
Argentina,Mendoza,Guaymallén,404,2.424,4.9269,65.2435,1637.5741,4303.1401,1.03149498684052,35.1894880944918,7283.27311792683,119.730040522731,3.05810488676996,2,1,167.15219000076,4563.02582,-32.8884499410982,-68.7427194838874
Argentina,Buenos Aires,Avellaneda,32,0.5591,3.0293,60.571,3417.2147,4356.9864,1.01879555124613,71.2069573258598,13464.9650915702,106.822490797239,3.36603860294117,3,5,57.3820333496556,7702.148799,-34.6785404171355,-58.3412095762458
Chile,Santiago,MAIPÚ,97,0.7045,3.3376,69.6101,1198.2594,3521.0147,1.03862876654373,73.6438345570644,8909.4957066481,72.9025947551062,3.0011536072411,2,5,138.056363593097,11192.76275,-33.5067523587064,-70.8093507727096
Chile,Rancagua,RANCAGUA,216,0.8256,4.2017,73.5055,352.9814,2681.8859,1.05522930651321,24.2614900414249,3388.38835593272,81.6249991240795,2.83921107628004,2,4,262.432356344509,6658.942349,-34.1258592458078,-70.8166841203967
Chile,Santiago,LA REINA,13,0.5547,1.896,60.09,1205.5095,1674.3009,1.03216209020614,84.3150436268646,12123.156876254,80.4573546411094,2.61530094271211,2,5,23.5070743575882,5983.370965,-33.447085874792,-70.536523165074
Argentina,Buenos Aires,Esteban Echeverría,126,1.0397,4.278,60.9738,2239.0606,4804.0065,1.01606825289465,42.1872460798759,8779.85238901296,116.03523662793,3.3472172351885,2,1,121.482212664379,5325.337767,-34.8322577693571,-58.4769867280449
Brasil,Blumenau,BLUMENAU,705,1.3601,8.8932,65.1808,545.875,3588.7131,1.09725993571603,11.8006834290435,2979.43772685404,138.123185635388,2.31669924889391,3,4,520.563070515135,3983.705192,-26.8850050026619,-49.0970250082762
Mexico,Guadalajara,Zapopan,486,0.4204,6.2669,65.6372,2014.4948,13011.219,1.0723521096873,21.0205301861308,3528.2035155603,97.3325182966165,2.90162467300013,3,4,1162.10199189539,6919.158907,20.7948959811205,-103.494183908243
Chile,Talca,TALCA,291,1.2558,4.3229,68.7242,398.7707,2609.4921,1.04535162937003,26.838828693412,3993.00427960728,87.9714682150223,2.92223454394233,2,1,232.387190635147,6359.053864,-35.4278132827818,-71.602509924158
Chile,Santiago,VITACURA,25,0.8796,2.5025,60.3621,1210.0664,1797.5967,1.07029928511548,73.1347191140695,12187.0569667738,100.912340729184,2.86746490503715,2,1,28.5090313500485,4539.776617,-33.3791539350201,-70.5725991836562
Brasil,Porto Alegre,PORTO ALEGRE,729,1.4684,8.0752,62.0375,5930.3635,15530.3761,1.04714672916689,41.603495191186,7112.85469953402,97.4802334824309,2.78678414096916,3,1,498.347552404501,7660.0547,-30.0953889830119,-51.1650672075482
Peru,Lima,RIMAC,1,0.0826,3.1943,,387.4295,684.9,1.05843844224102,99.9941994707266,13421.7405631719,80.0100285186058,2.89558514365802,6,5,12.1907071255354,25772.08352,-12.0236016729909,-77.0326748288628
Peru,Lima,BREÑA,1,0.3114,1.2583,,321.12,321.12,1.01800550073781,148.552054275392,20165.8006525312,83.8604186896712,3.32993890020366,6,5,3.23119059067439,25469.60638,-12.0591639134139,-77.0505924309604
Brasil,Goiania,GOI8NIA,955,1.3034,7.206,65.0557,4575.1117,13596.6654,1.04201817421746,49.0032979905877,8533.21847730468,105.290747854799,3.18439810628224,3,1,736.929992078006,5414.392676,-16.6430214835146,-49.2747930152654
Costa Rica,San Jose,MORA,119,0.7274,3.2281,107.037,2.06,91.6498,1.21214178228816,2.93220725294923,1620.65020593598,306.495145919495,2.47531734837799,5,3,164.722326334264,7462.881384,9.88418965581765,-84.2699718761694
Mexico,Mexico City,Tlalpan,141,0.4484,3.9536,62.9435,1048.3747,4828.5466,1.05773260988273,20.5652740911165,3988.30871313054,109.849269822369,2.78603304788324,2,4,316.164033175158,9447.425199,19.198339665262,-99.2062207897537
Brasil,Rio de Janeiro,NIL3POLIS,7,0.3609,1.5166,67.2098,476.0281,960.1206,1.01289154058089,53.2725933247769,9117.28865536955,94.5436662244867,2.73174258857556,2,1,19.4846906301673,16457.94334,-22.8210672737484,-43.4289512420271
Colombia,Bogota,ZIPAQUIRA,57,0.2926,2.8525,72.931,4.2446,181.2707,1.1133561081064,5.13621565613863,1128.95605465976,125.601763771122,2.86709886547811,5,2,196.253441732975,24570.06928,5.04559869055029,-74.0230009099278
Colombia,Palmira,PALMIRA,479,0.4757,3.4605,97.3131,22.5695,867.6992,1.09225980318988,4.01081118496174,1006.51205160993,147.380883829706,3.06520778072502,1,2,1014.00933936978,11247.42268,3.5580998595474,-76.2281885523562
Peru,Lima,BARRANCO,1,0.3644,1.7449,,165.3795,213.03,1.02538409083267,133.487280497051,19697.0696375796,90.2964734082584,3.2233502538071,6,5,2.76430831930949,15632.54002,-12.1440295170935,-77.020862521739
Brasil,Sao Paulo,MAU9,73,1.1799,5.5135,61.5169,1750.2406,2953.5016,1.06835885055855,54.2090998414504,10027.0653761869,113.467669024075,2.88718481933974,2,1,62.1482372858722,11713.10275,-23.6661343900313,-46.4464490360221
Chile,Santiago,SAN BERNARDO,227,1.4854,4.1234,66.0887,697.3806,2468.3647,1.05791347440313,37.0502147644124,5564.43497135851,89.4097296143082,2.90178301601692,2,1,153.305454128049,6502.758439,-33.6289573134289,-70.7238797868024
Brasil,Sao Paulo,OSASCO,17,0.2617,2.2235,60.0722,5341.2472,5866.6917,1.06088992607567,93.5905083835058,15628.2823886643,103.039512024822,2.94645227909721,3,5,65.2523434852532,11607.27147,-23.5287492296363,-46.7892673857075
Brasil,Sao Paulo,CARAPICUABA,20,0.579,2.5655,60.0284,3060.3186,3226.2638,1.07328991662218,87.9143058068972,14714.2428232273,100.719280785313,2.74520917678812,2,5,34.7042494619873,11615.08503,-23.5500406283475,-46.8419285071601
Argentina,Mar del Plata,General Pueyrredón,765,0.5313,6.727,68.6611,601.6461,8367.7196,1.02175518184797,10.8017493113859,2583.85280241196,130.072709203361,3.50296074720713,3,4,1442.35896898453,6031.642531,-37.9670095279625,-57.7403258149984
Colombia,Bogota,MADRID,161,1.3598,3.4554,83.2163,14.0317,284.9076,1.05212390734659,5.46828816942508,1302.83000080526,139.694454494442,2.77407407407407,4,2,119.23292624656,12012.14179,4.77188776629675,-74.2604594199495
Peru,Lima,MAGDALENA DEL MAR,3,0.9211,1.5252,67.0694,278.7569,300.7815,1.0224565270172,119.049382364957,18601.1527334197,92.9873989961436,3.36496350364963,2,5,3.28435135262903,17957.33121,-12.0938386850906,-77.0666944126584
Argentina,Buenos Aires,Lanús,3,0.0596,1.5529,60.0003,4984.4839,5006.7001,1.00528403535302,92.6582055091177,17151.0082567084,101.667753357138,3.56876938986556,3,5,50.4218700797121,9256.69658,-34.7066521919252,-58.3948377478546
Chile,Punta Arenas,PUNTA ARENAS,185,0.0104,3.688,101.1163,2.1162,1463.2656,1.09197507353128,0.227254548707516,65.2722432825897,165.956228377399,2.98518359458879,1,6,17729.0180676887,4945.727186,-53.642997314869,-72.0181164639091
Peru,Lima,SAN JUAN DE MIRAFLORES,10,0.4497,2.4941,60.3749,1488.1662,1810.5814,1.02318523345649,183.886244159989,22129.4831654259,74.3074033606195,3.10263459335624,2,5,22.3834034938409,21124.95281,-12.1574561418977,-76.96657539428
Costa Rica,San Jose,VASQUEZ DE CORONADO,102,0.4555,3.5573,65.634,16.7404,520.263,1.14024646380964,2.91545994144091,810.355089230879,157.833902951401,2.37449799196787,4,3,225.350378052284,8853.63755,10.0432588123174,-83.9481751486933
Chile,Santiago,PEÑAFLOR,136,1.9628,4.0224,66.2033,156.8744,863.6112,1.06026367253951,23.1033870236526,3720.15374228878,92.3576224683169,2.5809875403784,4,4,69.5136171313677,6457.553728,-33.6108756653841,-70.8936377613873
Mexico,Mexico City,Miguel Hidalgo,1,0.0216,1.8901,,4639.86,4639.86,1.05719966818492,94.3704099111788,17017.3437000972,106.998827452464,3.22755517463038,6,5,46.6353807739333,8007.43988,19.4280623721166,-99.2045669104077
Argentina,Buenos Aires,Quilmes,33,0.3586,2.3484,60.1275,6112.1935,7463.1763,1.01259486203191,83.3836441458572,14931.8330518388,98.9239833847892,3.45371961698993,3,5,92.2602997122932,7781.134569,-34.7359990176819,-58.2767306016356
Argentina,Corrientes,Capital,310,0.5519,4.0633,69.7805,314.7543,3684.5797,1.02997635209462,12.4769339508044,2323.68777963849,104.857951377413,3.27594339622641,2,4,564.161037299242,7648.238106,-27.521560664424,-58.7647297107491
Mexico,Mexico City,Coyoacln,1,0.0185,1.4939,,5392.17,5392.17,1.05031927371866,111.72110874825199,17768.3154049019,93.1846511058896,2.89822452117992,6,5,54.2064079729673,11484.48584,19.3266672064419,-99.1503763459972
Argentina,Buenos Aires,Comuna 6,1,0.146,1.2914,,684.9,684.9,1.00576424025686,83.1470409328252,15379.2585596035,106.145509976454,3.52596314907872,6,5,6.86735202592853,26725.94539,-34.6187342698568,-58.4443190717368
Brasil,Aracaju,ARACAJU,306,1.6831,3.9466,65.1338,970.5747,2700.4657,1.04357973376942,58.6577640568578,9084.13783902669,93.1648151363377,2.95448150293801,2,1,182.993678204224,8960.756136,-10.9941557203916,-37.0949070793842
Chile,Concepcion,CHIGUAYANTE,16,0.2528,3.1001,61.745,108.9153,792.4729,1.05106519438692,24.7259594267518,3612.96744083419,82.2386252573168,2.66269083969465,4,1,63.4151327735143,10735.06926,-36.9004865720963,-72.9984935190278
Mexico,Xalapa,Xalapa,122,0.9795,4.9001,68.7973,1716.1544,4294.746,1.066413788815,70.5371002608296,10149.9005016742,83.1859157750843,2.82582194311045,2,1,125.239058131592,9192.268051,19.5438697970885,-96.8883447697376
Argentina,Buenos Aires,Comuna 9,4,0.2538,1.775,84.8549,1531.4872,1551.6932,1.00499681305162,102.317197519404,18322.6786576375,102.113188967181,3.59462759462759,2,5,15.7940213295376,10845.63008,-34.6533246972395,-58.498993422913
Brasil,Rio de Janeiro,S3O JO9O DE MERITI,1,0.0284,1.2626,,3520.62,3520.62,1.02951232901142,97.9036063207934,17296.4745940032,103.707740537519,3.00811976655671,6,5,35.3817405729649,13096.69888,-22.7851483895751,-43.365304379447
Brasil,Rio de Janeiro,NOVA IGUAUU,372,0.7137,5.4763,63.1418,973.3551,5307.9249,1.0412141962609,24.2345275482946,4483.8691464535,108.786815308738,2.8158321968959,2,1,523.715594401719,8374.51834,-22.6878389787266,-43.5017974354077
Argentina,Buenos Aires,Comuna 4,8,0.3611,2.2122,67.1673,1990.2022,2091.1138,1.02710094458938,79.5774179234776,14502.0145477246,104.423094241491,3.36175847457627,2,5,22.1922254589637,11141.12961,-34.6435755352241,-58.3881277966008
Brasil,Sao Paulo,S5O BERNARDO DO CAMPO,250,0.6106,4.1609,63.0867,1144.5564,6127.1173,1.08472281321204,22.9421646209159,4358.54225221981,112.269839787054,2.77809573361082,2,4,411.338692574651,10305.66081,-23.8129993037528,-46.5507845652859
Mexico,Toluca,Toluca,819,1.9133,7.528,64.7087,3298.9294,10113.2893,1.04088593477626,27.7806948006841,6173.14773455834,126.784725494832,2.80654424040066,3,1,430.334809326136,5874.204702,19.2970886751095,-99.6664054978886
Chile,Osorno,OSORNO,450,0.4714,5.4372,94.8936,44.5037,1740.8861,1.07530608140383,4.60831823481142,1054.82333452887,133.031737209176,2.85171960157865,1,2,956.09716506054,6403.129175,-40.6115170936935,-73.0865417215511
Colombia,Medellin,SABANETA,12,0.7654,3.7232,73.0304,89.5327,356.9831,1.14103051924715,25.0325729226166,5283.57122823704,124.808082155707,2.79466119096509,4,1,15.7794406999658,12274.86585,6.13823772800161,-75.6085510076425
Brasil,Joao Pessoa,JO0O PESSOA,339,1.6034,7.3092,60.9261,3964.326,8105.378,1.03187207425261,62.9910550812515,10148.4722845715,97.3658769804608,3.11470464431036,3,5,212.855618670066,7094.66353,-7.16540343315237,-34.8697841099032
Guatemala,Guatemala City,Chinautla,46,0.6868,2.0286,103.2105,4.9001,105.7265,1.18837473562356,15.1385666620878,2916.12272981319,108.974650662913,2.44121532364597,5,4,67.3775809009997,41704.04572,14.7264282526,-90.4975961184092
Argentina,Buenos Aires,General San Martín,22,0.3893,1.9107,60.2553,4151.7672,4796.4008,1.02345501294547,83.1901803919381,15623.8942489824,104.753514200636,3.50840163934426,3,5,56.6413004251236,8546.549309,-34.5537319253523,-58.564451807886
Mexico,Mexico City,La Magdalena Contreras,14,0.2207,2.8295,63.3532,435.2672,1634.2523,1.05251125268074,21.8498971376667,3798.82490331199,101.97351323123,2.69428891377379,2,4,63.753160539993,14112.75093,19.2689765067044,-99.2684128900208
Chile,Concepcion,CONCEPCIÓN,53,0.2456,4.0021,61.1189,264.0352,2236.8857,1.07918511890722,20.5148891837467,3081.46553819962,86.3885820834383,2.76776398632847,2,4,216.233193378129,8944.607399,-36.8342730574807,-72.9492056162795
Brasil,Ipatinga,IPATINGA,97,0.5883,5.5397,62.1297,639.1322,2994.9158,1.07105001794376,23.541526227281,4586.97234087876,117.419167900358,3.00324600046371,2,1,165.749661357052,6992.153419,-19.4389727492727,-42.6009219840406
Mexico,Monterrey,San Pedro Garza Garcaa,36,0.5087,3.2073,61.2867,1559.4162,3220.1507,1.11431784474238,50.01343886984,9753.04153544997,113.221447316227,2.81241379310344,2,1,71.080895062063,3570.448961,25.64459748276,-100.374757698287
Colombia,Florencia,FLORENCIA,112,0.0472,3.8357,185.0827,3.2426,768.0702,1.15213616458106,0.38231839585428,90.2176581444433,135.819476412042,2.92548298068077,1,3,2390.67753451332,15714.20019,1.72825723062746,-75.5778134555954
Brasil,Feira de Santana,FEIRA DE SANTANA,550,0.4112,4.2343,91.4777,235.6532,4639.9224,1.04541324729565,8.73932754249817,1736.04152184544,117.553563226929,2.83836437593663,2,2,1346.21341777023,8634.169394,-12.1897811911261,-39.0372671899154
Chile,Temuco,TEMUCO,223,0.4796,4.2068,66.3791,178.6126,2348.2999,1.07349870438438,15.6638025958395,2691.3194956569,99.2150681864228,2.88546558240751,2,4,465.787279644207,7792.056868,-38.6729965767878,-72.6678774033458
Chile,Santiago,CERRILLOS,4,0.2384,1.6936,94.8622,1611.2289,1643.8502,1.05642400461097,100.704205303674,14725.3168723732,88.1190086944797,2.92868137506413,2,5,16.8215418104113,4906.520748,-33.4995258833621,-70.7123435197365
Chile,Iquique,IQUIQUE,107,0.0468,2.8035,137.3131,6.1789,957.2998,1.08162676992606,1.22289970045267,330.051823471911,157.544811071635,3.1188086759469,1,6,2300.27041380313,12755.09513,-20.9255573191779,-70.0481582636267
El Salvador,San Salvador,SANTA TECLA,51,0.4702,2.7423,71.6586,97.616,910.6795,1.08728106466046,14.7364015480504,2797.9583443583,103.974859725369,2.60149713782474,4,4,109.253266121334,11480.76477,13.6478989245341,-89.3094153571386
Chile,Santiago,RENCA,17,0.7154,2.0885,67.7185,1462.1148,1846.1017,1.04191361642425,107.839750166495,14533.424536444,81.0252348168677,2.96306523990334,2,5,23.8223845663003,7780.062484,-33.4017732142047,-70.7278305061016
Brasil,Sao Paulo,TABO8O DA SERRA,16,0.7851,2.2645,67.7244,1538.6499,1760.0227,1.08302997924632,103.951402432144,16342.2994710248,97.0995438708555,2.90592623290509,2,5,20.4807241671388,14132.91796,-23.6205340009197,-46.7863705494836
Argentina,Cordoba,Capital,780,1.3991,7.2972,62.7569,7031.5029,17330.9107,1.02833906627039,47.3869785121721,8650.08764077594,104.765152027974,3.25820090905887,3,1,559.246460358149,6059.52771,-31.4177385224019,-64.1847634477437
Peru,Arequipa,YANAHUARA,1,0.2727,2.0738,,299.332,331.29,1.090492934719,120.66118030565,14551.4664402832,75.1624610817707,2.9609375,6,5,3.68801298704981,7308.098645,-16.3947446700266,-71.5504057074479
Brasil,Campina Grande,CAMPINA GRANDE,234,0.394,4.6859,79.4332,272.0419,3375.3251,1.03096325238249,12.9703824929406,2168.69663544344,99.5624099853129,3.05817628467751,2,4,598.054837952689,8159.972257,-7.26347361619128,-35.9663206433137
Argentina,Buenos Aires,Hurlingham,42,1.1873,2.8433,61.0083,1598.6003,2321.7302,1.01455575121244,70.9543518149728,13475.0218296644,107.157754616055,3.37672510257366,2,5,35.459417719169,7497.115783,-34.6002259548193,-58.649792380736
Brasil,Recife,JABOAT1O DOS GUARARAPES,309,1.1946,5.6929,62.0201,393.0839,1830.0785,1.0546575627162,24.8264403994602,4473.2556119738,104.785488182246,2.76805143422354,2,1,260.367571669296,11852.43984,-8.15215821999333,-35.0033608883884
Mexico,Mexico City,Iztapalapa,8,0.0707,1.8442,61.5225,10183.7426,10624.8829,1.03525503370585,125.816143289276,18772.5397982699,87.7207270306236,2.98943124198179,3,5,113.769184349334,16534.5893,19.3491632621915,-99.05679865573
Brasil,Belem,AINDEUA,200,1.0499,4.5371,60.5106,1814.7062,5718.009,1.03134642246505,34.4761020676497,5545.99068618551,93.0485475290469,2.83616654348361,2,1,191.785022188001,7866.274963,-1.33403254961418,-48.3835728376849
Brasil,Macapa,MACAP0,273,0.0426,5.7778,70.3632,25.5666,3293.5484,1.05112367732356,0.73313597220056,209.622292122073,157.313918980046,3.05887584489505,2,6,6451.73634817367,8206.232582,0.555004469910422,-50.7009291808966
Argentina,Buenos Aires,Almirante Brown,72,0.5577,4.53,61.2989,5365.4112,8238.0015,1.00689337181398,62.3347463569305,12149.78104486,109.306752598276,3.41606954070245,3,5,129.398136214653,6624.495606,-34.8367139977676,-58.3675979380448
Chile,Santiago,RECOLETA,4,0.2537,1.7642,60.0271,1100.4944,1316.7005,1.03008027220689,128.802849355503,17771.4356345583,83.3320048096228,3.0921762589928,2,5,15.8303951364634,12340.13172,-33.4052820079981,-70.6393074515315
Nicaragua,Managua,Nindiri,292,1.9556,3.0932,82.6176,2.1234,50.0119,1.06517329016998,3.94661264029205,1295.56964101513,192.358083297914,2.64249363867684,5,2,150.255435242339,6050.06625,12.0479276403882,-86.1416419666646
Argentina,Buenos Aires,Malvinas Argentinas,49,0.7756,2.6035,60.0131,5552.6439,5854.5767,1.00917820102803,81.0662411909073,14090.8768231352,102.13077345101,3.23653352876511,3,5,63.3185889044986,5413.572736,-34.4883778224712,-58.7121528366
El Salvador,San Salvador,DELGADO,149,4.4652,3.975,61.6637,45.9142,214.8904,1.13018683770858,17.718586353663,4561.27339974391,143.283537556499,2.34394904458598,4,4,33.5805570559523,18086.20158,13.7551536746271,-89.1603251136275
Mexico,Monterrey,San Nicolis de los Garza,4,0.0665,1.7582,60.0001,5795.8069,5904.2701,1.05110876213089,147.427939527966,21116.7969580773,86.8691941587431,3.11191829858917,3,5,60.42273960093,7509.071729,25.7360564283705,-100.2706914432
Peru,Cusco,WANCHAQ,1,0.1765,1.7421,,566.55,566.55,1.02327815783978,140.33676633928,18794.6012236675,83.507403595053,3.12661195779601,6,5,5.70057313466881,11228.48822,-13.5312818425392,-71.9512043504119
Chile,Valparaiso-Vina del Mar,VIÑA DEL MAR,134,1.1125,5.137,67.902,130.5678,636.3821,1.08482543619515,48.5039066341669,7524.34132752821,88.0674648115005,2.6716552702877,4,1,120.835627616671,12706.25701,-33.0274848511576,-71.5154237932628
Peru,Lima,JESUS MARIA,1,0.2307,1.4748,,433.53,433.53,1.02206889769807,126.827089566761,17816.5294882734,83.2356237674445,3.25913621262458,6,5,4.36815196100811,16426.54488,-12.0781064166384,-77.0482083601663
Peru,Lima,SAN LUIS,1,0.2873,1.744,,348.03,348.03,1.01608898458532,162.507659618803,22509.1561941311,87.0468275292742,3.19159663865546,6,5,3.50752697649486,16428.18148,-12.0740865463883,-76.9972394466066
Mexico,Guadalajara,Guadalajara,10,0.0661,1.9416,60.0856,13015.9884,14023.6212,1.01676005922553,122.476494923729,19387.5885461764,88.8576011788825,3.32529699510831,3,5,151.947522760094,10628.01653,20.6759710449147,-103.335807203664
Argentina,Neuquen-Plottier-Cipolletti,Confluencia,831,0.1151,4.2891,113.4401,22.8247,2048.3137,1.05426549032875,2.2228264444207,633.039220414369,165.003858465979,3.18032411384069,1,6,7233.13331112997,4677.554236,-38.8326268861959,-68.8018332128191
Argentina,Buenos Aires,Comuna 14,11,0.676,2.15,60.0138,1395.209,1498.1159,1.02587691277581,74.4586637445235,12662.1858467799,97.6920789448876,3.21570066030814,2,5,16.3177787365189,14944.73807,-34.5754064419445,-58.4226180941807
Colombia,Popayan,POPAYAN,170,0.3523,4.251,78.6953,38.9517,954.2424,1.12283099117719,7.59672017440941,1438.58472985148,109.907340999307,2.8506391567616,1,2,486.130845314057,13496.1467,2.47091791934988,-76.5920902594341
Brasil,Campos dos Goytacazes,CAMPOS DOS GOYTACAZES,585,0.1453,4.4658,109.0059,31.7844,1963.1396,1.08364939476087,2.1772525304138,671.928138567305,181.54910055003,2.90835030549898,1,6,4046.38409046909,7152.343384,-21.7473244811643,-41.4039009658943
Chile,Copiapo,COPIAPÓ,259,0.0146,5.9281,211.6383,2.3089,1569.7839,1.13319401005792,0.223694679132847,122.453703924689,317.405051144849,2.88091251569694,1,3,17859.1641763077,5958.098252,-27.3170879509833,-69.8227991726443
Brasil,Santos,GUARUJ1,160,1.1164,3.8025,64.1446,178.0796,714.1481,1.05321631973286,34.2325121510646,5416.40118194607,91.9122045966322,3.10444485092372,4,1,144.102775111308,8377.476124,-23.9504351169411,-46.2348515552521
Peru,Lima,EL AGUSTINO,16,1.202,2.2394,103.0752,618.6853,782.1485,1.05465013516464,123.88475861892,14998.1819335054,76.4843187479054,3.02360876897133,2,5,13.3914778419451,17923.56422,-12.040232964317,-76.9878545778836
Argentina,Buenos Aires,Berazategui,176,0.7996,2.4932,62.5616,1215.63,4639.446,1.024248342059,27.3256873936802,5823.53395314542,120.566272523631,3.35436137071651,2,1,220.634888818729,5654.511721,-34.818952992385,-58.1553430078285
Brasil,Joinville,JOINVILLE,604,0.5365,6.7182,66.4822,920.3517,8261.8455,1.04777328812525,8.9667741035305,2132.76460913671,131.428459960994,2.68188792284649,3,4,1130.72994623651,4176.412381,-26.2441907318574,-48.9513788005958
Peru,Lima,SAN BORJA,1,0.0966,1.2605,,1035.72,1035.72,1.02861800890287,138.113432667337,21358.5322305818,95.099979128434,3.15994712491738,6,5,10.4189720884427,10748.85104,-12.0975463369543,-76.9952085586282
Argentina,Buenos Aires,Comuna 8,93,4.3047,2.5488,60.4632,465.6634,738.5208,1.02638706486947,73.2076676410377,13770.1492109255,110.69461369791,3.24310041103934,2,5,21.664397338496,16123.29692,-34.675854213035,-58.4621245093988
Chile,Quillota,CALERA,35,0.5909,3.2728,62.4343,51.6375,412.317,1.03549455554746,16.8689058451983,2671.87022324673,92.3636170331261,2.79532634971796,4,4,59.4585095918059,7248.105907,-32.793430650122,-71.1566609886299
Peru,Lima,SAN MIGUEL,1,0.1043,1.4902,,909.0323,933.57,1.02074418252315,106.943226494612,17875.522305353,96.8153278792308,3.24776386404293,6,5,9.64062927400027,14439.83847,-12.0764449142778,-77.0900671220128
Chile,Santiago,QUINTA NORMAL,1,0.0846,1.5174,,1181.7,1181.7,1.00911473531498,111.569070659016,17426.8546251308,91.8565946558429,3.11440107671601,6,5,11.849162067867,9451.806719,-33.4276004143984,-70.7010789953778
Brasil,Montes Claros,MONTES CLAROS,268,0.0751,5.7801,121.3921,59.8946,3918.4958,1.04151177249553,2.57477075981937,531.977957091123,118.237516314418,3.1534856473345,2,6,3589.05738103389,6818.085971,-16.6190550522299,-43.9294691576548
Chile,La Serena-Coquimbo,LA SERENA,326,0.1715,3.4061,89.4877,14.6959,913.2984,1.10700412557357,3.03418198971362,663.406715454117,127.161719649869,2.84258064516129,1,6,1907.5981663665,6400.210575,-29.7890117246844,-71.0605762056655
Brasil,Recife,PAULISTA,147,1.5111,4.0765,60.9374,742.5471,1737.7921,1.03121630102114,43.8316937222898,7418.92827503214,99.0500012748605,2.90941315478534,2,1,97.9428271058772,7383.727504,-7.92815483743359,-34.8832624208879
Brasil,Sao Paulo,S5O CAETANO DO SUL,1,0.0652,1.5534,,1533.06,1533.06,1.02504211743537,123.108504871726,17989.3099048403,87.7031422578448,3.18659329664832,6,5,15.4010480589911,10025.24363,-23.6261407677624,-46.5660625251637
Mexico,Mexico City,Huixquilucan,142,1.0082,3.2212,76.5902,155.377,921.848,1.16793010647658,10.231375555455,2959.58279844692,169.763282375347,2.68253109789075,4,4,141.623185674914,10220.34355,19.3831008236926,-99.3395276021783
Chile,Rancagua,MACHALÍ,313,0.1206,3.401,114.1349,0.9164,203.743,1.19619556387436,0.681965422524681,180.696752862464,149.363631997262,2.56232003290826,5,3,2601.30490697392,3737.981387,-34.3205734715437,-70.3191073104197
Colombia,Cartago,CARTAGO,60,0.2464,4.5997,69.7236,22.7001,656.3637,1.0562617324468,3.10644525566122,705.460757399138,128.755223897588,3.06370875995449,1,6,245.296452146169,15262.52048,4.70756832600702,-75.9172416192779
Chile,Arica,ARICA,287,0.0599,4.959,100.133,9.882,1747.7838,1.07996126288473,1.13147405939734,262.237566723378,138.582178755755,3.01437303816289,1,6,4821.14455448098,7943.54809,-18.5317036791377,-69.9725764451063
Brasil,Fortaleza,MARACANA,132,1.2379,5.4956,62.9491,406.0668,1279.5067,1.02536925090513,39.2045934178752,6906.71667048488,105.222675546726,3.09353298611111,2,1,107.359868654597,6263.289778,-3.88086577324136,-38.6288261667477
Chile,Chillan,CHILLÁN,447,0.9433,3.9014,76.5546,103.2566,1699.548,1.04849645974743,9.95249196436449,1734.93634678023,99.1722524673546,2.71001786004221,1,4,475.358334067451,6098.675892,-36.6172868696656,-72.1282954214286
Colombia,Riohacha,RIOHACHA,135,0.0439,3.1823,162.7066,5.4005,1060.3466,1.0361645629352,0.85776686481451,205.108361260117,132.445112060366,3.27912538435257,1,6,3097.57826862963,13593.28154,11.2433409572035,-72.9595535620368
Brasil,Itajai,ITAJA0,244,0.8468,6.4106,70.57,264.2132,2109.0092,1.05324942291056,12.2279922138482,2947.69170899223,136.345658588317,2.80469273743016,2,4,289.417914086669,5163.310702,-26.968731721698,-48.7531561774666
Colombia,Bogota,CAJICA,140,2.709,4.5727,86.6062,23.1108,171.8972,1.0734629881412,11.4549999766213,3167.00111690995,159.668662133476,2.48677884615384,4,4,52.0296814680386,7354.634427,4.93074339136564,-74.0297872082376
Brasil,Recife,CAMARAGIBE,348,6.7909,5.0347,61.8544,313.8826,1027.8445,1.05637893400815,48.6535744597468,8469.62614602524,102.376151387494,2.74196627426026,4,1,51.5892208922209,9430.066713,-7.98683437826308,-34.9957625160923
Chile,Iquique,ALTO HOSPICIO,33,0.0575,3.1447,78.6534,13.3159,732.6213,1.05123379453092,3.23342621307779,544.620746369407,100.995791554159,3.08164275111331,1,6,577.09682455497,8053.878443,-20.189739439157,-70.012629724003
Brasil,Curitiba,PINHAIS,61,1.0024,2.9628,62.0864,688.7955,1660.9106,1.03527158163219,36.8920184449008,7786.59103927729,118.277877559513,3.09494640122511,2,1,61.1243324451846,4762.629325,-25.4198946802751,-49.1556106497662
Chile,Quillota,LA CRUZ,61,0.7814,4.9294,71.0211,12.4251,219.9528,1.08000152593319,6.3575442957018,1411.71709804169,131.177710913278,2.58006042296072,4,2,78.3321321625217,3787.755102,-32.8249020365387,-71.2406019294474
Argentina,Buenos Aires,Escobar,502,1.6612,3.9045,67.364,415.0117,2176.4097,1.03290084414927,18.454311328854,3964.02337506851,127.328042946082,3.05584164789185,2,4,302.964434725789,3735.548406,-34.3297674530608,-58.7712123200691
Nicaragua,Managua,Mateare,111,0.375,2.7851,86.3231,5.6057,259.0397,1.06307138712989,3.35639044141002,921.979205338916,158.874302554444,2.89173553719008,5,6,297.939115682828,4492.373503,12.207232330439,-86.4088552600245
Argentina,Buenos Aires,Moreno,457,2.4521,7.2498,61.8353,3174.3658,6464.5189,1.01201149595983,56.7487977126181,11202.9150908032,111.430095123228,3.33545197740112,3,5,186.805719720875,4965.437587,-34.6117582946172,-58.8110860824449
Mexico,Queretaro,Querataro,445,0.6519,7.8835,71.1132,2239.3949,10230.6684,1.05523371770713,30.6602421079407,4974.89254938815,95.3404969715663,2.81402570855772,3,1,686.198103913571,5343.821007,20.7288053733731,-100.452710292898
Colombia,Barrancabermeja,BARRANCABERMEJA,253,0.2046,4.2298,82.7828,23.6055,1214.916,1.09441622768671,1.76624407949034,448.792502319117,144.074071356658,2.93094339622641,1,6,1245.58096219341,7968.823473,7.0607674126766,-73.7773554108636
Brasil,Belo Horizonte,CONTAGEM,278,1.4236,4.9236,65.4041,1277.8511,3179.0896,1.04412520172765,44.6760748080675,8745.1077485466,117.519227794597,3.01089613034623,2,1,196.279553153951,7898.615809,-19.8873538512811,-44.0839290482704
Argentina,Buenos Aires,San Ferdo,29,0.0291,2.9181,63.9305,46.8277,2126.7091,1.03045639977809,2.12422001450577,358.405091339087,95.3281300878644,3.24032326669502,1,6,998.484142657642,7500.912242,-34.1524210241609,-58.5463191018763
Brasil,Curitiba,CURITIBA,554,1.2736,6.6679,60.52,20795.3634,28603.3524,1.03372769310126,65.6055739402776,12076.3532889394,103.639201373978,2.91353889318331,3,5,436.883610317801,5690.45435,-25.4778911816015,-49.2882634445804
Argentina,Buenos Aires,La Plata,853,0.9569,7.5939,66.4869,1180.0796,8489.5942,1.02319832693896,17.0225821131268,4257.75137561871,138.413734882912,3.34171463192971,3,4,893.69520434086,5322.884058,-35.0051008762272,-58.0188623947118
Argentina,Rosario,San Lorenzo,671,0.3328,4.9754,93.1147,42.2598,1417.3521,1.03353693589383,3.74202079247688,1425.1731450917,216.520613194206,3.27989728539985,1,2,2022.43665113112,2662.258816,-32.9492822082061,-60.9640085241122
Brasil,Florianopolis,FLORIAN,591,0.8753,5.0785,65.3839,95.4909,948.2466,1.05319529090459,11.3803269449011,2589.25739047043,126.726917198801,2.52025120597069,1,4,678.012155306054,6297.521925,-27.5778974277893,-48.5081712766729
El Salvador,San Salvador,SAN MARCOS,21,1.2516,3.2208,62.0646,96.5982,392.1779,1.11130617970673,21.6709828351338,4585.98959486741,123.528737107461,2.51851851851851,4,4,16.8889432834871,16744.57995,13.6519847457664,-89.195645918929
Chile,Concepcion,TALCAHUANO,89,0.9568,5.3775,68.8404,420.4729,1633.8216,1.06031754716343,38.7143366868165,5573.80025312183,85.0885778727401,2.88954448902525,2,1,93.3504305972179,7323.976608,-36.7156475881678,-73.0990800762342
Guatemala,Guatemala City,Fraijanes,169,1.4697,2.6166,85.2538,1.5995,35.4061,1.1795887388389,17.3348916134881,3534.26540665105,114.146381795723,2.34546636334091,5,4,115.720365879827,8941.323326,14.4684535021261,-90.4417679489004
Argentina,Buenos Aires,Tigre,322,0.8194,5.978,61.5145,1851.3321,7713.7305,1.02901581157853,16.7220280833514,3383.74431885715,115.567363627084,3.13108563722184,3,4,394.031152630346,3992.367659,-34.3832782409873,-58.5998182346154
Peru,Cusco,SANTIAGO,18,0.3063,2.5777,69.0129,25.7046,341.6037,1.01735394368523,97.8888245435007,17295.3327240168,100.639091209978,3.30866205774705,4,5,23.1997882351809,20360.19536,-13.572892527262,-71.9797738952692
Chile,Antofagasta,ANTOFAGASTA,264,0.0086,4.5188,159.118,2.3628,2044.6113,1.11077154756874,0.246399905270513,92.8555020182109,221.003589623193,3.02429622707627,1,6,30848.2261454408,9830.327931,-24.2781924729247,-69.4052471583593
Argentina,Rosario,Rosario,972,0.5231,5.8493,68.7877,947.8386,9384.1,1.02729329769923,12.0008825489276,2955.72996452827,139.291798900506,3.31726015919564,3,4,1863.362957585,6490.714322,-33.1319020500661,-60.7074352700232
Brasil,Vitoria,CARIACICA,234,0.8362,6.4223,63.8741,620.8317,3446.7963,1.06848431157617,25.1944767145971,4706.61345721227,111.582960503395,2.9607476635514,2,1,281.291811704664,7278.124002,-20.2906822472575,-40.4421286723876
Peru,Lima,MAGDALENA VIEJA,1,0.2152,1.2986,,464.67,464.67,1.0456073314519,198.645743993368,24166.6350133913,74.6677566482684,3.21406411582213,6,5,4.67163293481373,16700.8845,-12.0750840576954,-77.0657431792357
Brasil,Petrolina,PETROLINA,270,0.0592,3.6186,193.425,6.4721,897.6335,1.07345988340107,1.73508334602104,448.974357530128,155.370573682531,3.07400972897845,1,6,4591.13391772673,9130.3396,-9.01979485311753,-40.5723591911142
Chile,Valparaiso-Vina del Mar,QUILPUÉ,62,0.1157,4.6166,61.2601,80.6405,1962.3442,1.08500024449265,7.2785211868282,1193.86255564294,93.1605359271666,2.67699457784663,1,2,537.334425443132,7002.907241,-33.1469699982215,-71.2541033950008
Brasil,Sao Paulo,BARUERI,46,0.7004,3.9242,61.4821,3099.8477,4180.1375,1.09397223773944,54.843832584602,10491.4715935532,118.504718532749,2.87001943634596,3,1,65.9873650226274,5089.557387,-23.5052763892203,-46.8772452146237
Chile,Santiago,PADRE HURTADO,76,0.9377,4.0339,77.1236,40.365,462.9643,1.09133978749298,16.743471226735,3152.74821718515,107.722759927528,2.60262008733624,4,4,81.2854145696403,6973.736345,-33.557280501818,-70.8709653260769
Chile,Quillota,QUILLOTA,155,0.5145,3.4414,85.5428,30.4655,728.7651,1.06597089783822,7.35681506454875,1423.68261067496,113.22967346031,2.80066079295154,1,2,302.304731121634,6973.169124,-32.9044279725239,-71.2720540161011
Colombia,Cucuta,CUCUTA,251,0.2213,4.7123,77.7132,126.0417,2795.4833,1.09369207190402,6.81606391326482,1642.92603655336,134.690222071964,3.09750138811771,2,2,1142.00807079456,12093.42212,8.1119245266867,-72.4886434659871
Brasil,Teresina,TERESINA,1012,0.7273,6.695,68.3822,471.4789,5403.3461,1.03339057425928,13.9106308465588,2770.69558447183,115.767626314029,3.22041462712352,3,4,1401.23048444074,6759.177582,-5.10251654120424,-42.7406992739507
Chile,Santiago,PUENTE ALTO,67,0.7598,4.1831,65.3052,2028.7516,3982.1896,1.04637498915998,124.854973861627,14182.5515410562,68.1429849008191,2.91508238276299,2,5,88.4786537398422,12694.11333,-33.5909440012707,-70.5579742101026
Chile,Santiago,LO ESPEJO,1,0.1214,1.2448,,823.86,823.86,1.01435964790423,158.840445277451,21378.0416356821,84.2700241413575,3.13752743233357,6,5,8.26615663099246,14433.03474,-33.5204193089978,-70.6897470687369
Brasil,Vitoria,SERRA,404,0.7325,5.788,67.0036,153.9241,1149.4728,1.07568156053255,18.0425076197778,3458.53197167947,113.093425701559,2.97307962118554,2,4,554.523806271404,5828.462652,-20.1285642961905,-40.3011373000608
El Salvador,Santa Ana,SANTA ANA,297,0.7293,3.9441,72.0505,34.275,739.0007,1.16017619603742,17.0353238750298,4528.50040126951,148.672608071504,2.45762711864406,1,4,61.7540357739842,13921.73991,13.9774402188265,-89.5486796187929
Chile,Santiago,PUDAHUEL,200,1.014,2.6166,92.2762,160.2095,1173.706,1.06601192442882,23.499539653013,3714.8744730266,95.8477876858166,2.90327436958976,2,4,197.791108618761,8204.928202,-33.4239133194565,-70.8545980538584
Peru,Lima,CHORRILLOS,13,0.3516,3.4857,60.1411,1634.8563,2440.3757,1.04211051075389,95.2771542371224,13921.1953191559,88.139708967968,3.06865284974093,2,5,37.2282319764961,12412.47351,-12.1926455035443,-77.0058886864413
Brasil,Juiz de Fora,JUIZ DE FORA,496,0.3456,5.9904,92.6914,78.2107,1862.1888,1.15326349599824,4.73700145069939,1329.33904395163,165.772083621832,2.71395021136683,1,2,1442.68480200507,8798.712717,-21.7454934191605,-43.4647366877093
Argentina,La Rioja,Capital,260,0.0198,4.9404,93.0326,8.2127,2547.9585,1.05924398480906,0.462043657262087,135.668025444464,168.750248737584,3.19703614093452,1,6,13152.4367978779,4393.146369,-29.4593536108585,-66.3711066065006
Colombia,Sincelejo,SINCELEJO,75,0.2676,4.8167,71.632,91.855,1499.7675,1.05034165683418,13.9187190558535,2194.33681036133,90.4264490712248,3.03201589754912,1,4,282.281723212714,14926.75113,9.3142934124679,-75.4320408426783
Brasil,Porto Alegre,NOVO HAMBURGO,293,1.3091,3.3506,68.086,873.4361,4003.3884,1.04817690194279,20.5754544154269,4314.47038939323,122.935580188856,3.02593440122044,2,4,224.587992405907,5042.023002,-29.7349741639264,-51.0489966886507
Colombia,Yopal,YOPAL,191,0.0769,2.9608,162.3778,4.724,788.877,1.12799367960433,1.21993104568122,383.33198918699,180.189941031946,3.07047949162333,1,6,2499.32158935869,8299.058882,5.24252408361155,-72.257484947091
Chile,Santiago,INDEPENDENCIA,1,0.1357,1.2486,,736.92,736.92,1.01720534418596,122.493733562594,18154.4778597923,88.9638049670254,3.07363184079601,6,5,7.37996935604916,10410.22092,-33.414407661316,-70.6650574877572
Peru,Huanuco,PILLCO MARCA,17,0.2462,3.9144,111.6823,8.9697,208.9817,1.05203174542256,5.64893776673755,1104.63338338625,119.332312512188,2.88235294117647,5,2,69.5706018066065,11116.50977,-10.0300744422838,-76.2716444255725
Brasil,Porto Alegre,SAPUCAIA DO SUL,98,1.6808,4.0386,62.9245,663.8396,1777.2345,1.03300874839534,40.9692132749994,7164.61141311407,103.119904063941,2.95652173913043,2,1,58.5073475516972,6196.012526,-29.8233454533296,-51.1337122474866
Mexico,Guadalajara,Tlaquepaque,169,1.4301,3.6484,62.0555,2673.9212,4153.988,1.03610337624739,87.0853902936964,12668.7656480938,85.45749540735,2.92591378462547,2,5,118.768486483417,7993.871346,20.5909097625739,-103.34890834671
Argentina,San Juan,Rawson,247,0.8559,2.2963,84.1909,97.6859,1335.8539,1.01436344075482,7.40251859203114,1899.57701907192,148.989453072916,3.03135048231511,2,2,289.496064529571,5544.278126,-31.6889195897566,-68.4679622603125
Mexico,Monterrey,Guadalupe,63,0.5353,3.4019,60.7266,5483.1756,7651.2175,1.04388005327445,108.561669307182,15732.105476845,87.736115801943,3.0614312401207,3,5,118.190887095645,8017.302499,25.6726512357963,-100.205777816578
Colombia,Cali,CANDELARIA,202,0.7136,2.4928,100.6211,1.8028,65.504,1.08735769630051,3.13600077609376,863.195542341264,160.519719211878,2.90831758034026,5,6,285.076460061841,9729.282193,3.38323835602228,-76.3858323806616
Colombia,Medellin,ENVIGADO,60,0.7457,2.7968,76.288,172.2775,1100.3139,1.17082788348936,17.4311645742481,4126.54467927166,133.375106170275,2.64788732394366,2,4,81.0617095594109,15677.40706,6.15338314858754,-75.5461974494117
Brasil,Petropolis,PETR9POLIS,456,0.5732,2.9654,89.8897,0.6524,35.0342,1.27412195177693,4.51348155579626,1885.87127273493,229.940696573067,2.30492723128178,1,3,799.604463956495,20078.09231,-22.3985525685099,-43.1573064685489
Costa Rica,San Jose,LA UNION,74,1.6645,3.6578,63.3286,119.4552,447.1783,1.1082247295093,29.0177237689898,5543.31355704988,111.142772217716,2.52103196859226,4,1,44.7312825200687,8407.34566,9.91120177307174,-83.9872127950299
Argentina,Buenos Aires,Berisso,72,0.4949,5.8011,63.2306,217.3327,1704.7864,1.02818016657446,13.6727750479154,3027.78067954515,126.63126676385,3.24483233807992,2,4,145.837256373497,4802.629096,-34.9111284142573,-57.8290466308304
Colombia,Cucuta,LOS PATIOS,44,0.3524,4.6114,75.9644,39.5676,608.2376,1.09641069939537,5.13195691641169,1466.80675692663,158.787896315154,2.81785283474065,1,2,125.683050443648,8842.715721,7.74074972241564,-72.5275424840412
Brasil,Florianopolis,S2O JOS,171,1.1224,5.5033,64.2806,384.2926,1859.67,1.05697667027867,25.8932344809194,5012.41614148271,109.695416728769,2.68074130683989,2,1,152.97432242074,6773.705842,-27.5777065386734,-48.6555347935813
Brasil,Caxias do Sul,CAXIAS DO SUL,632,0.3845,7.3838,77.6514,87.761,2390.2651,1.11855193752269,5.89587151637929,1760.00229322386,170.707469398243,2.78521184361197,1,2,1650.13772314608,7435.987925,-29.1027853000685,-51.0251548916359
Brasil,Porto Alegre,CANOAS,112,0.8544,4.4503,61.3912,3220.3786,6310.5626,1.03199970746597,38.3682393497958,8165.15793590031,122.552917559768,2.983835290114,3,1,131.541089336611,4987.914094,-29.9123425220186,-51.1796492687759
Chile,Santiago,LA PINTANA,28,0.9194,2.0578,79.2378,1256.7586,1668.9376,1.01530662065344,85.3686853076703,11092.8501118169,78.324831792983,3.03570202540336,2,5,30.5381298845627,9011.681907,-33.5875894106062,-70.6371098124631
Brasil,Franca,FRANCA,242,0.3998,6.8419,66.5673,403.6284,4165.6195,1.03020559565371,14.6725190765304,2700.16186437758,107.084213429534,3.19808472988445,2,4,608.757088909653,5594.277774,-20.5552234946877,-47.3811117307838
Argentina,Buenos Aires,Pilar,848,2.2145,6.8924,62.7741,478.1088,1894.0018,1.0321129585702,23.8017103183223,5338.44736462384,129.009949600485,3.03907145586549,3,1,383.879976598421,3098.872906,-34.449863862797,-58.9032850918109
Brasil,Maraba,MARAB0,427,0.0282,3.338,187.195,1.8052,741.5077,1.09522184523428,0.334375187501312,99.1611217416459,167.468724813818,3.03069954705586,1,6,15228.4026756022,6393.294827,-5.62980645650497,-50.0169512115115
Colombia,Bogota,FACATATIVA,95,0.6125,4.0677,76.9756,15.7685,395.3955,1.08669837862471,7.70028615280057,1375.96220372085,103.248688111566,2.83254237288135,4,2,156.227960380728,19375.17177,4.83320076492423,-74.3369843563632
Chile,Santiago,CERRO NAVIA,2,0.1802,1.8513,902.4965,756.7995,916.2001,1.00720768785043,180.330027255594,20459.5952964053,67.870935994056,3.1299771167048,2,5,11.1295940589824,17091.18879,-33.4222303223644,-70.7441158140696
Brasil,Sao Paulo,ITAPEVI,167,2.0204,3.3499,63.0815,298.6064,1130.6787,1.09831123469475,26.9394925842318,5728.45189952481,128.215323922252,2.73624772313296,2,1,83.0379411566702,9470.074899,-23.5509520703366,-46.9676619226273
Brasil,Sao Paulo,ITAQUAQUECETUBA,140,1.6949,5.0052,67.5543,585.0791,1353.3586,1.0609300785715,45.5740184575551,9278.83150619748,122.340640681544,2.77131022454763,2,1,82.9858794111457,9277.993402,-23.4614317741057,-46.3338800937671
Costa Rica,San Jose,BARVA,103,1.8401,3.311,74.162,17.8063,177.3924,1.11015866364813,10.6348678886723,2680.9125441269,141.651169742187,2.4059405940594,4,4,56.3241599491818,7194.724758,10.0755396955292,-84.114579192397
Brasil,Santos,S5O VICENTE,73,0.4939,2.6346,62.935,196.3327,1187.5333,1.02050446022279,22.8659519947533,3857.18456822011,96.2912289973295,3.22318059299191,2,4,148.561494434146,14007.49661,-23.959201285444,-46.4883816982549
Argentina,San Juan,Santa Lucía,121,2.222,4.7604,68.6515,177.2972,793.6202,1.04462828221218,18.8545875344535,4691.09304072741,146.355176929915,2.78510473235065,4,4,54.6286148194888,4039.275645,-31.5345021881025,-68.4639856196016
Colombia,Medellin,LA ESTRELLA,41,1.1747,3.2291,65.8701,16.8658,155.6946,1.10962845949575,10.5298237733203,2512.49181350867,138.160666091768,2.47279549718574,4,4,35.1382898674408,15193.73694,6.13863008262689,-75.6487374357219
Argentina,Buenos Aires,Ituzaingó,47,1.2336,2.3692,60.0989,2901.9364,3256.5816,1.01126041315515,81.7012361215096,15911.12481536,109.732344620459,3.45242480049109,2,5,38.2001564255198,4979.027859,-34.6370531796891,-58.6888816223781
Brasil,Rio Grande,RIO GRANDE,326,0.1203,4.1896,83.3064,7.4887,666.6716,1.04237880385124,1.69278686014689,570.435560439424,191.206200059603,3.189838519102,1,6,2717.41239744784,6678.233895,-32.2200693552552,-52.4045806330814
Argentina,Buenos Aires,José C. Paz,116,2.3159,3.1277,60.068,2949.4518,3696.9448,1.00637352733172,97.8290051884995,16674.4042083111,95.2255230007224,3.40482112110197,2,5,50.2100577485729,6688.26229,-34.5129786664283,-58.77777035168
Brasil,Bento Goncalves,BENTO GONCALVES,211,0.5528,3.799,82.6391,35.9973,741.8443,1.19170371006097,6.07335570132692,2179.74696036305,202.453770928975,2.7028086218158,1,2,383.313626681106,5967.694044,-29.1169927688742,-51.5277250238986
Argentina,,Zárate,430,0.3614,2.8387,96.3262,14.5673,673.5,1.04658367918894,2.47599786132699,846.609699904524,192.905152542141,3.10827647582319,1,6,1193.05434230739,4466.982195,-33.9984809084269,-59.1282603935896
Costa Rica,San Jose,SANTA BARBARA,97,1.8603,3.424,78.7662,49.5928,365.0438,1.09426860709257,9.03496145814203,2625.03907678375,160.884440864407,2.42597765363128,4,4,52.4628690665687,5186.126286,10.0819165031472,-84.1498762788111
Brasil,Jundiai,V5RZEA PAULISTA,81,2.3057,4.9329,61.3326,609.9548,1278.5761,1.07154184184792,38.5162333608774,7866.22482357243,126.389113121021,2.80438871473354,2,1,35.2838240247135,6579.608447,-23.2192720379158,-46.8249082178007
Costa Rica,San Jose,ASERRI,95,0.5694,4.1126,74.8879,10.0158,299.2313,1.24856097287397,3.42246020585657,1185.89628166894,196.682943657273,2.43523920653442,4,3,168.007797144302,10284.71663,9.7450317324314,-84.1374454444626
Brasil,Foz do Iguacu,FOZ DO IGUAOU,364,0.5896,4.648,65.14,368.9343,3732.6985,1.03716136167886,10.4184852138888,2334.03461372887,127.624004746923,3.12486218302094,2,4,620.339700764197,4311.332691,-25.4657942540435,-54.4830729684504
Mexico,Mexico City,Xochimilco,86,0.7537,4.0339,60.8197,3401.5168,5877.4713,1.06503334399889,45.5810823298801,7756.38532400717,94.800981679057,2.44717444717444,3,1,114.718644944773,6171.661692,19.2451450441429,-99.0903636059577
Peru,Lima,LURIGANCHO,131,0.5331,4.8881,66.8788,78.2068,696.7092,1.07712193975414,15.4529072043122,2897.2930217671,108.904797761965,2.8235798499464,1,4,247.332100650513,6886.634114,-11.9586467310592,-76.8016199770357
Colombia,Cartagena,TURBACO,69,0.3378,3.6246,153.8171,7.7838,277.4411,1.08000605408352,3.96263374514443,1017.87104908199,142.898875916788,2.69672131147541,5,2,205.671291473417,11751.29118,10.3526381102726,-75.3794723315429
Argentina,Buenos Aires,Florencio Varela,172,0.9033,3.5086,68.1294,1021.8091,3689.3246,1.01068965653519,36.3002629355069,7423.97710597961,115.222039734074,3.38132825258573,2,1,190.85261206809,8092.101146,-34.8787024216371,-58.258775795683
Argentina,Jujuy,Dr. Manuel Belgrano,202,0.0991,4.6372,73.3727,22.6174,1373.0946,1.10534099374174,3.46981988640266,737.854624945709,124.188145614075,3.0889423076923,1,6,2047.65671781485,8015.245346,-24.0880698281176,-65.4333860422732
Guatemala,Guatemala City,San Pedro Sacatepéquez,55,1.9067,3.2117,93.5055,4.9001,57.4441,1.14026936538714,23.0489298115077,4437.95472859173,114.195534189858,2.44969199178644,5,4,29.0252087828384,17369.71372,14.6786136735687,-90.6215839297667
Brasil,Sorocaba,SOROCABA,667,1.4837,8.5118,64.871,1445.572,6311.6124,1.05338127238575,29.1850992283546,5734.22417096,114.470280233227,2.89550239234449,3,1,451.874427316911,5866.378414,-23.4645225161107,-47.4467826193572
Brasil,Londrina,LONDRINA,508,0.3074,7.5595,88.4577,228.8339,4282.6343,1.06357170632318,7.7432621683367,1790.2771955065,139.37084632731,3.0942700043409,2,2,1660.6695886628,5894.143226,-23.514179466766,-51.1104166813571
Chile,San Antonio,SAN ANTONIO,131,0.329,3.5184,78.7374,14.1952,464.2348,1.06401608869171,5.1186769544166,1256.06452566178,143.143299169102,3.01543077582511,1,2,399.321937719932,7764.224637,-33.6646070202052,-71.4887736048334
Guatemala,Guatemala City,Villa Canales,193,0.6901,2.2438,100.1978,2.9224,96.4078,1.12732871356418,5.4373066377251,1540.71885941753,161.648705155205,2.49454545454545,5,2,281.389316796032,17791.85957,14.3897566324238,-90.5322705476903
Mexico,Mexico City,Atizapmn de Zaragoza,98,1.0553,2.7553,62.6862,1797.9616,3634.8149,1.07697862432162,59.020889974741,10261.2767470018,103.634046260629,2.74605049461095,2,1,93.3398327669689,10664.79878,19.5648072849948,-99.2740439911352
Colombia,Girardot,GIRARDOT,97,0.7471,3.9511,70.3534,29.8576,417.0231,1.07411550084282,15.2666479828435,2111.98936991687,78.932899564813,2.94182124789207,4,4,130.808020348946,10951.02849,4.33818989283423,-74.8114864467559
Chile,Concepcion,HUALPÉN,26,0.5717,3.3429,62.9694,291.7823,1131.7201,1.06348998244552,52.6750322706456,6302.08369260226,71.7725506564995,2.93893967093235,2,1,45.657304729175,8613.840276,-36.7851741355467,-73.1440827362145
Chile,Santiago,LA CISTERNA,1,0.1002,1.2227,,998.46,998.46,1.01136276494736,111.915946988834,18057.1699672702,93.4854193951211,3.07913110938712,6,5,10.0075103694716,9108.126515,-33.5300694799604,-70.6637718917085
Argentina,Buenos Aires,San Miguel,63,0.7673,3.9893,61.1551,2400.7878,4326.2171,1.02074418252315,106.943226494612,17875.522305353,96.8153278792308,3.24776386404293,2,5,9.64062927400027,6101.849291,-34.5531865449024,-58.6921520067079
Mexico,Cuernavaca,Cuernavaca,78,0.3907,4.9754,60.8733,2078.5786,6148.9424,1.08067086006912,28.5146210247749,5457.95750328648,110.157409942745,2.67187708750835,3,1,200.739122397127,5402.646822,18.9388851584023,-99.2630392113771
Brasil,Rio de Janeiro,BELFORD ROXO,31,0.3984,2.4512,60.2573,4623.5526,5978.2311,1.04832444877669,81.5398208975353,13449.7224687842,97.9082926831458,2.85313575019846,3,5,78.1826588509552,7839.657567,-22.729061847978,-43.3768700695297
Argentina,Posadas,Capital,299,0.3148,4.4801,66.7548,228.1105,3648.62,1.03485080427129,10.4079716242204,2114.15575483092,116.999193247819,3.20664000743978,2,4,954.076390532413,5525.615184,-27.550941225012,-55.8561557290404
Costa Rica,San Jose,OREAMUNO,112,0.555,3.579,76.3166,5.5783,211.3064,1.14051547726409,3.56350831436307,1030.04508213525,167.957337081332,2.5892494929006,5,2,203.17056567031,8575.209776,10.0074071681955,-83.8658418060087
Argentina,San Miguel de Tucuman-Tafi Viejo,Tafí Viejo,200,0.1756,4.2109,74.607,15.9291,786.2539,1.08633093345175,2.7280640282026,710.552937070596,150.68362295345,3.01576763485477,1,6,1143.66817191443,5412.787573,-26.6633731147875,-65.446623793134
Argentina,Bahia Blanca,Bahía Blanca,487,0.2131,5.1337,76.6491,77.6599,2644.8742,1.03276100408774,3.67248519190013,939.28779884952,144.004054171924,3.41100582258248,1,6,2288.64095042171,4534.339152,-38.5853169702967,-62.1706249182144
Brasil,Cuiaba,CUIAB0,615,0.176,8.5165,71.8477,222.0032,6988.6981,1.06563030818198,4.44785001670358,935.650667605288,124.754527173503,3.0121184406082,3,2,3515.63113443042,4987.321841,-15.4488917375832,-55.9389985847222
Brasil,Sao Paulo,SUZANO,323,1.5662,4.4514,66.5626,199.0397,1054.1675,1.06248697768914,20.0969955645652,4603.13578498694,134.791965091508,2.93143329202808,2,4,207.145390793644,6940.919655,-23.6083619932095,-46.3104580370932
Brasil,Balneario Camboriu,BALNE0RIO CAMBORID,105,2.2736,3.5449,61.3437,214.5302,711.8268,1.03986937172185,39.0125982499695,7783.10200902873,116.397749868475,2.82286488929055,4,1,46.4209019967392,7893.810396,-27.0047019558873,-48.6205564950401
Argentina,Mendoza,Godoy Cruz,43,0.5058,2.4313,63.4414,771.1177,2510.5112,1.02307297923848,38.4219263497403,6189.48018616201,95.1962464605239,3.11841375485302,2,1,85.2377876681378,7514.179467,-32.9284807851137,-68.9021372531786
Chile,Concepcion,CORONEL,150,0.5499,6.4375,65.4815,98.4968,1382.2344,1.06735590798909,11.4939080193481,1895.19113778131,95.6336055105958,2.75992871690427,1,4,273.449204109626,5606.593814,-37.0075421975758,-73.1266596907434
Brasil,Campo Grande,CAMPO GRANDE,762,0.0942,8.2625,79.5393,315.3592,13635.9841,1.04164291281118,3.13944874896654,674.846251018727,124.13608101125,3.25445770704391,3,6,8133.59351969217,4268.249869,-20.9131688441298,-54.2496892159239
Brasil,Rio de Janeiro,S3O GON,305,1.2317,6.9882,60.8994,4013.7428,8846.2777,1.05983431429995,43.3748903873345,9096.35313501822,122.430936014382,2.78228228228228,3,1,248.87670962627,8944.649151,-22.8256490068487,-42.9972301138249
Colombia,Medellin,CALDAS,42,0.3073,3.6246,90.4483,2.9227,151.6452,1.29677786177517,3.13069405428747,1302.18655830437,241.931067540114,2.62697022767075,5,3,137.66915339739,27747.02957,6.05401309060027,-75.6266368522048
Costa Rica,San Jose,EL GUARCO,89,0.5149,3.1237,97.5218,8.35,282.0923,1.18678508103882,3.22405639450456,1024.01923491864,191.18439167325,2.60557768924302,5,3,174.004400467755,8212.840809,9.74680576360282,-83.9297159577369
Mexico,Mexico City,Cuautitl n Izcalli,99,0.8994,4.8843,60.997,4475.9227,6595.8043,1.05629797365164,59.5125109776699,10186.3223013017,101.276521331574,2.68376685934489,3,1,110.649002904125,6849.850393,19.6545670260508,-99.2251856363855
Brasil,Boa Vista,BOA VISTA,392,0.0689,5.4752,100.4238,57.2885,4750.678,1.0443005004764,1.49103471126117,467.508408470224,174.133452739884,3.34628782930546,2,6,5724.88348898325,4239.963718,3.11791494498721,-60.7179531094783
Peru,Lima,LA MOLINA,8,0.1642,6.2102,61.5581,714.1591,1853.6501,1.05739791839545,49.3825609718749,8017.10630067787,98.6055882951292,2.99401645474943,2,1,49.0254039554336,7922.932281,-12.0880856620685,-76.9257286179438
El Salvador,San Miguel,SAN MIGUEL,419,0.6622,4.4692,71.2333,54.4354,1439.5682,1.02074418252315,106.943226494612,17875.522305353,96.8153278792308,3.24776386404293,1,5,9.64062927400027,10022.36183,13.4366569182182,-88.1576539322295
Brasil,Sao Paulo,EMBU,201,2.8553,3.9124,62.7659,199.3903,665.3659,1.11063419522235,31.6926147366133,7197.39795319895,140.008655821864,2.71187063579566,4,1,70.7104799848227,11725.89843,-23.6513359203332,-46.8515047009484
Argentina,Santa Fe,La Capital,992,0.3336,4.0469,76.4471,90.9551,2600.7909,1.03192089968384,4.33399347558385,1143.03850025056,148.872064920869,3.2847112766872,1,2,2983.85313057211,5148.287891,-31.4789222663004,-60.6703636141906
Mexico,Mexico City,Ecatepec de Morelos,30,0.1921,3.7275,60.0449,9608.1093,12236.0593,1.02978260200376,102.553190523083,16230.0789384454,92.156236370118,2.92118563756975,3,5,157.011204798895,13493.77679,19.5727837338869,-99.0432117359598
Chile,Calama,CALAMA,196,0.0126,3.6005,139.2676,2.3225,1341.8669,1.09385211705428,0.371992353989161,136.507608289443,216.99260162354,2.97141560798548,1,6,15675.0533645911,6025.846168,-22.1694857943555,-68.6267052941262
Brasil,Porto Alegre,VIAM0O,663,0.443,3.717,78.8313,28.0527,1021.875,1.08989323775647,2.59118329223567,1060.08691404425,239.04338868064,2.7537482029164,1,3,1502.01647705206,6003.806826,-30.1671407318333,-50.8695473685603
Peru,Lima,LOS OLIVOS,1,0.055,1.8702,,1819.62,1819.62,1.01827364954569,181.146487511487,23648.6772272621,81.1533752078069,3.17963017317287,6,5,18.3111472133272,18920.43394,-11.9725245768779,-77.0743897657788
Brasil,Sao Jose dos Campos,S5O JOS,515,0.4685,4.7957,68.4021,219.0503,2688.7558,1.07432710901038,11.0154362045754,2199.67935686124,119.327923610047,2.89838468654379,2,4,1104.54091640477,7242.60067,-23.0905697509068,-45.9285359708948
Argentina,Santiago del Estero,Capital,213,0.0997,3.5008,70.7106,73.3387,3270.1947,1.03901805403435,2.95542344989628,803.193266085663,153.796423482464,3.28931555034442,2,6,2145.54702820082,5606.442796,-27.8893445350113,-64.4330270516552
Brasil,Santa Maria,SANTA MARIA,354,0.1981,6.3164,71.2976,67.1379,2666.7808,1.06932851787708,5.19442768986806,1418.67429562726,148.369580864623,2.50269876002917,1,2,1794.2303861846,5978.09828,-29.7847546155079,-53.8239916958652
Brasil,Campinas,HORTOL1NDIA,66,1.0601,3.7488,60.6033,1744.5075,2664.9158,1.03263357781582,62.9706841069408,11378.8010480731,106.900585850419,3.00067099082979,2,5,62.5687977807076,4868.288039,-22.8785882248945,-47.2077139395564
Chile,Temuco,PADRE LAS CASAS,412,0.89,2.9635,113.0141,3.9856,255.4652,1.08540050743054,3.21877588622061,1210.75005371497,219.63059472616,2.80250954719039,1,2,463.840929836539,10547.87124,-38.8021672639948,-72.5552868748992
Argentina,Mendoza,Capital,57,1.1692,2.6763,63.7873,323.2939,952.5081,1.05305325357318,40.3023747521275,6966.80431997455,102.172468936233,3.095,2,1,48.8804943161817,7115.220742,-32.8785671808468,-68.9021637572435
Brasil,Imperatriz,IMPERATRIZ,231,0.1688,5.2544,95.0832,70.9859,2613.6109,1.03521089676933,3.84526848973646,742.132200123266,109.485133881407,3.0484502446982,1,6,1378.05721866853,6687.217891,-5.33976687304435,-47.5752441864235
Brasil,Porto Alegre,GRAVATA,514,1.1093,4.2854,69.0211,242.3141,2261.9774,1.05332576216018,9.56408434593568,2610.65719856063,156.140288745187,2.85894621295279,2,4,465.073271953128,5307.287669,-29.8907785665921,-50.9473961896149
Brasil,Santarem,SANTAR7M,617,0.027,3.5872,126.5603,2.9059,1619.8694,1.09608612800096,0.21524177427491,80.5011837636205,211.023269320262,3.16585716855549,1,6,23039.2079637211,7229.736807,-2.76459822700711,-55.0938533107954
Colombia,Manizales,VILLAMARIA,15,0.033,2.369,323.4853,0.2311,70.6641,1.51700688845625,1.40030233118706,562.26432547362,227.77093443628,2.73582629674306,5,3,457.758289566377,34382.56659,4.94028143034355,-75.4351011030394
Brasil,Blumenau,POMERODE,230,1.0713,5.2377,93.0649,6.3099,189.7602,1.12186879776464,3.75251472875155,1698.56830104248,246.59409767027,2.32120743034055,4,3,215.588760731966,3952.625091,-26.7285896173928,-49.1733024431205
Brasil,Porto Alegre,S3O LEOPOLDO,181,1.7621,7.1169,61.0825,1575.8751,3784.9986,1.02564758345941,48.3655171701647,8202.8467616241,99.3691275039063,3.06294835007173,2,1,103.089975911096,5158.053738,-29.7553864407188,-51.1449776475857
Mexico,Mexico City,Iztacalco,1,0.0433,1.7695,,2309.4,2309.4,1.01258619127694,130.638238312809,20113.5602671399,90.3933838526853,3.10999408633944,6,5,23.2167858291043,16599.80947,19.3969118972681,-99.094329797914
Brasil,Caruaru,CARUARU,330,0.3586,4.5404,124.3831,91.3105,2245.3059,1.04508768406099,8.9524340165903,1611.58760853733,105.948524753714,3.01400320684126,1,2,926.563656836568,8594.72645,-8.17998007156036,-36.0165880830256
Brasil,Maringa,MARING0,302,0.6202,9.1781,67.8308,774.1315,5163.6696,1.02417386331539,20.0103000110819,4391.34573102373,125.455522444948,3.24265886129732,2,4,489.298011253085,5024.554223,-23.4009476300757,-51.9678042689744
Argentina,San Miguel de Tucuman-Tafi Viejo,Yerba Buena,84,0.5671,3.6198,63.9369,174.4285,1350.387,1.06090847187407,13.2731746430811,2726.97077907551,116.841792299885,2.9728237791932,2,4,148.721014608888,4023.458939,-26.7918948030074,-65.3462251540318
Brasil,Lages,LAGES,163,0.062,4.3277,75.7995,27.1891,2055.902,1.10197516352829,1.65251810702889,520.955469180026,178.709606188246,2.98644986449864,1,6,2641.42340191839,4579.373703,-28.0201187488587,-50.3408624251585
Mexico,Morelia,Morelia,508,0.4263,6.8702,83.1542,554.7284,6400.1419,1.0660205927925,16.7580675708584,2738.37775426864,95.0216239505403,2.95112234407128,3,4,1198.46753899746,7034.332661,19.6665813098475,-101.279118525439
Brasil,Florianopolis,PALHO0A,275,0.6963,5.2702,62.9385,155.798,1566.5722,1.06245335327102,10.6444054951958,2428.13635063657,127.292715762416,2.61892406158104,2,4,396.640282250192,3553.849875,-27.7719984606248,-48.6615399794745
Brasil,Sobral,SOBRAL,215,0.1013,3.5913,156.6542,5.2292,643.3311,1.05240077115375,1.92740011114663,443.963288435524,134.407588728521,3.08436886854153,1,6,2137.07573024344,11065.7691,-3.80973929289471,-40.2267114629957
Mexico,Mexico City,Cuautitl n,94,2.3028,2.421,67.8818,413.8882,959.3373,1.05976217108662,37.6552421060888,6316.07882735944,96.3381497401199,2.57584269662921,2,1,41.0301438415177,7901.846552,19.708238593373,-99.1594239924362
Brasil,Rio Branco,RIO BRANCO,567,0.0642,6.9273,70.2329,17.9892,2820.9598,1.07306581457732,0.856446043622134,232.469970913733,157.268684320431,2.82819051714869,1,6,8891.39491822996,5972.166751,-10.0661478311005,-68.3710447619058
Brasil,Macae,MACA4,258,0.2121,6.7379,85.0164,36.5699,1339.422,1.11656555783935,4.0124684718056,1009.67126751168,148.040974317643,2.73396596858638,1,2,1222.68873499517,6257.094425,-22.2957803884314,-41.9773433307675
Chile,Santiago,EL BOSQUE,1,0.0698,1.2253,,1432.98,1432.98,1.02298699632814,174.522559219004,20539.6487800853,70.3002395512814,3.0063224446786,6,5,14.3649050943266,13238.00751,-33.5627691761087,-70.676214301167
Peru,Arequipa,PAUCARPATA,26,0.9155,2.9536,62.9107,205.6137,706.7692,1.03501676211472,103.420613302529,12883.5092524188,73.0098924487769,3.13852813852813,4,5,28.5726404595565,15037.52118,-16.420070068385,-71.4779991022769
Mexico,Toluca,Metepec,96,1.4251,6.0702,60.5735,1784.6668,3030.4921,1.07260482850413,52.4380839475553,10199.9440735227,110.55047869981,2.67867867867867,2,1,67.7179586414988,5414.145997,19.247385457102,-99.5883660568435
Argentina,Mendoza,Las Heras,414,0.0472,3.6683,110.1676,5.335,1428.2414,1.09626243374443,0.40327184489254,140.557859137686,202.356272648433,2.95825381679389,1,6,8790.59633073227,6346.509795,-32.5236383839087,-69.27608359807
Brasil,Porto Alegre,ESTEIO,30,1.0838,2.4788,61.0759,750.7202,1369.914,1.0272044600843,50.8093858098431,9404.68119504655,110.432270583805,2.97467572575664,2,1,27.770459680043,5485.348891,-29.8517472740068,-51.1767972444296
Brasil,Jaragua do Sul,JARAGU6 DO SUL,472,0.8917,6.0081,70.3504,161.4554,2094.8808,1.09932779454966,6.5301656674815,2090.58765208137,170.953081287793,2.39838146036417,2,2,531.686357865258,3566.076169,-26.4812738139939,-49.1599579006445
Brasil,Blumenau,INDAIAL,239,0.5549,6.3705,72.422,12.9908,440.4936,1.11830529501034,2.55492829465727,1038.38403814718,225.451034060238,2.36975782634376,1,3,432.497460813564,4389.495064,-26.9943508583995,-49.2241052222733
Brasil,Jundiai,JUNDIA4,887,2.0582,7.217,68.1411,609.1435,3189.064,1.08342455513936,20.6958942620732,4433.38594953144,126.661651194899,2.75325968851865,3,4,433.177705996933,4629.700493,-23.1945983668551,-46.9130276850395
Peru,Lima,PUENTE PIEDRA,43,0.877,7.2642,60.7577,1204.5981,2353.1754,1.03133985299516,74.8283934346319,10895.6962687309,87.9468580549293,2.98118214716525,2,5,49.3261959876815,11031.27079,-11.8718293308249,-77.0862417582944
Brasil,Sao Jose dos Campos,JACARE2,328,0.7067,4.872,77.3433,112.7739,1375.5247,1.09500032585103,8.73670979630991,2283.30201180233,150.762167152569,2.68071833648393,1,4,466.422726061146,5715.389467,-23.2988774651508,-45.9905059127867
Chile,Los Angeles,LOS ÁNGELES,1117,0.6385,3.5622,113.226,16.4154,932.0212,1.06687695788715,2.74881663942658,815.57258094292,171.048569558631,2.73599737962659,1,6,1753.11802572806,6056.168909,-37.4072337638547,-72.3273825683002
Argentina,San Juan,Rivadavia,117,0.9731,2.8286,73.6978,81.0202,601.1337,1.04744744213032,17.3411523385556,3246.52145194874,108.363027480293,2.80327245053272,4,4,120.695554663141,5214.909439,-31.556314870649,-68.6431409371202
Peru,Huancayo,EL TAMBO,47,0.2824,4.5334,62.6677,97.6097,1202.2662,1.05225031908059,16.6690083675632,2320.95586040363,81.2608497687514,3.13452768729641,1,4,167.496466402467,11570.00326,-11.9719552541684,-75.1610888090338
Argentina,Parana,Paraná,1037,0.2024,4.6096,125.1056,31.8222,2159.3612,1.05509524878429,1.92313452301714,741.267062645656,221.356190034512,3.18651747734418,1,6,5139.52606107516,4575.1447,-31.6988520772596,-60.0445814498379
Peru,Ica,ICA,98,0.1105,4.657,87.1718,16.5821,1043.0178,1.04978944699581,3.825146300315,610.563473076996,94.5794041626381,2.98220732336255,1,6,892.253454389165,9152.162503,-14.2138566933792,-75.9066566805967
Chile,La Serena-Coquimbo,COQUIMBO,381,0.2676,3.3081,102.5382,15.0987,721.4267,1.06236636367729,4.48729766549667,828.197353772936,107.611081701372,2.88626214867349,1,2,1429.14521791372,6887.721206,-30.227467382477,-71.3584423966643
Brasil,Ipatinga,CORONEL FABRICIANO,52,0.2351,6.8028,66.0483,59.8543,998.8105,1.12364605446058,7.91773542070741,1823.77089020372,133.650305191515,2.89957163255592,1,2,222.412079518901,8037.995217,-19.4585874791023,-42.6899250451646
Chile,Santiago,CONCHALÍ,1,0.09,1.287,,1110.87,1110.87,1.01276467853034,201.687722184635,24668.4531424861,73.6219877278993,3.12752785802723,6,5,11.1409855575788,12606.51561,-33.3833966559671,-70.6765923324629
Brasil,Criciuma,CRICI0MA,344,1.4595,5.2821,72.3603,191.0825,1078.0642,1.03902295719176,25.9589503225265,5252.11084174355,115.417541409387,2.83890856618129,2,1,236.565805770312,4679.248264,-28.7154669951361,-49.3795800136645
Brasil,Blumenau,GASPAR,344,0.8897,4.368,97.1471,9.0186,237.5626,1.11355406334807,3.33750743868116,1422.87976018408,233.034062860117,2.34345908868201,1,3,388.313741260789,4015.301708,-26.9310119880278,-48.9658097656341
Brasil,Rio de Janeiro,QUEIMADOS,121,1.5988,3.1456,70.5042,179.8132,868.2557,1.04337210492935,29.1112874400901,5992.45221638085,121.079653381604,2.85328330206378,4,1,76.0529744538548,8848.502249,-22.7255663091075,-43.5850454125959
Argentina,San Luis,La Capital,492,0.0377,4.0074,113.7211,4.142,1268.2123,1.05987352049742,0.52381262307918,193.330935346742,214.558330215927,3.14586666666666,1,6,13086.7407503537,4913.415495,-33.8182525990167,-66.5121309887669
Brasil,Nova Friburgo,NOVA FRIBURGO,295,0.3161,4.2603,98.5131,2.8495,203.038,1.24170049807698,3.87251605704723,1652.39328635133,234.386821440039,2.31612112725363,1,3,937.891527496821,13975.8567,-22.3198077705392,-42.5014968214832
Chile,Valparaiso-Vina del Mar,CONCÓN,62,0.81,5.3674,65.395,62.1986,603.8327,1.09280983511396,15.0872939506985,2946.91127199366,115.089256402502,2.8975859546452,4,4,76.8196075311662,5366.713592,-32.9515847531268,-71.4674071570054
Brasil,Campinas,CAMPINAS,954,1.201,6.0134,65.8556,1467.244,5742.3065,1.05317394562402,32.3803580891455,6099.34546059172,112.041353178293,2.98930757065254,3,1,798.169060664702,5479.368232,-22.8837602324411,-47.0437820267224
Peru,Arequipa,TIABAYA,19,0.5114,2.7453,149.8143,0.9979,35.6021,1.09514100466563,14.3722106993047,2217.9993324501,88.9193356030847,2.68039772727272,5,4,37.3637717422258,14397.38788,-16.4634522843765,-71.5990135276337
Peru,Lima,SAN MARTIN DE PORRES,5,0.1364,2.8806,240.9955,2765.5,3178.8109,1.02365631074327,184.969718488248,22839.3068120036,76.6472020196213,3.17372700042789,2,5,36.881712616292,19847.17362,-11.9924691486969,-77.0883980433513
Guatemala,Quetzaltenango,Quetzaltego,212,1.6726,6.1532,63.0932,406.4156,1827.6307,1.07458303602994,27.7916460114558,4815.77771009073,98.2501036436226,2.72213773625896,2,1,127.592298726686,5505.100657,14.8154651005056,-91.5333391243581
Chile,Valparaiso-Vina del Mar,VALPARAÍSO,135,0.4348,3.8805,73.6746,31.145,498.0575,1.11361937280505,15.2047268758795,2856.90823830243,106.256639581478,2.62803939673745,1,4,317.664371049123,15074.70066,-33.0070894419601,-71.7241294672396
Mexico,Mexico City,La Paz,15,0.4094,2.5228,60.5955,1601.3586,2391.902,1.02523284692985,72.934455542467,12013.162053923,95.389342295798,2.81677111310056,2,5,36.8275869069323,10354.9864,19.3610186171338,-98.9476985709996
Brasil,Anapolis,AN0POLIS,383,0.4106,7.0107,72.8118,315.8039,4133.7089,1.03995797221109,11.5754277249077,2370.32806675106,121.827183018895,3.11856594110115,2,4,938.45344277216,4813.935442,-16.2905872519214,-48.9735964632829
Brasil,Pelotas,PELOTAS,373,0.2318,6.3068,130.2858,96.3427,3050.0765,1.07843983739991,3.79879301803637,1348.36962407809,202.907094531895,2.97457510017963,2,2,1614.98664730389,6653.546637,-31.58116767948,-52.3411558314504
Nicaragua,Managua,Ticuantepe,146,2.2662,3.0813,66.9812,2.5123,42.6673,1.07833526021152,3.7788685924512,1239.83648189929,189.138428222625,2.51008645533141,5,2,64.8342206155091,7119.546593,12.010640833352,-86.221429273857
Costa Rica,San Jose,PARAISO,196,0.4106,3.3526,85.6543,2.2112,183.0018,1.15866946848545,1.52123948913249,546.651052529128,201.134605549677,2.6325719960278,5,3,480.529203470035,9958.211957,9.71643383819765,-83.7653597087807
Colombia,Bogota,TABIO,57,0.7565,2.3421,76.7905,0.389,28.5644,1.12428213137731,1.59417967557384,804.27650157789,281.315556349104,2.48314606741573,5,3,75.9011056620354,23260.23392,4.9514394636024,-74.0850890181536
Argentina,Buenos Aires,Ezeiza,352,1.4806,5.3981,64.406,405.6376,2527.5182,1.03465337466962,16.9404498836728,4361.16343979051,144.345641868786,3.31201461854728,2,4,238.305359522408,4279.536412,-34.8771471255455,-58.5648688078002
Brasil,Araruama,ARARUAMA,211,0.3309,6.9879,83.2851,161.5289,2548.4958,1.04505959707961,8.36925508818316,1906.91229171219,135.146582577172,2.83943661971831,2,2,641.036740244066,2785.744328,-22.7551720778976,-42.2932500797921
Brasil,Rio de Janeiro,DUQUE DE CAXIAS,419,0.8962,8.0416,61.3429,2405.3883,9676.8395,1.04613721875289,24.7106307456024,5201.45206688928,121.282443700712,2.86235018792993,3,1,469.838269995035,7395.969124,-22.6325582714729,-43.2999009501709
Mexico,Mexico City,Texcoco,437,1.0209,4.7836,69.9877,79.6184,788.0861,1.06744922956765,7.46439896319766,2234.56617058632,174.828094004151,2.66618705035971,1,2,430.309260777241,5320.494588,19.4716241968762,-98.8277922178492
Argentina,Neuquen-Plottier-Cipolletti,General Roca,1413,0.0962,3.5239,144.6284,4.6746,816.0855,1.04492787381228,0.877650819543276,304.329651220871,200.186270562443,3.15352112676056,3,6,14706.3042756761,3875.290045,-38.5316644864393,-67.5590322256579
Colombia,Buenaventura,BUENAVENTURA,215,0.0316,4.9923,133.5538,2.2871,969.2085,1.14308164424028,0.202666154157503,59.1681066021262,155.429915994267,2.64336372847011,1,3,6853.63575271937,22584.81039,3.59375220708295,-77.073387745029
Brasil,Itajai,NAVEGANTES,108,0.9645,4.5588,84.0914,117.0287,812.3124,1.02646315733547,16.8575628715109,3491.50090554525,117.432805162591,2.96330680813439,4,4,112.47177391248,3815.740534,-26.828798635649,-48.727272052333
Argentina,San Juan,Chimbas,91,1.441,4.6992,68.4498,276.3234,1037.2475,1.03550351338011,26.2018900208679,5181.484901419,114.586108396539,2.81923634606089,2,1,63.468703924623,5290.260836,-31.4894421154524,-68.5228140164843
Peru,Ica,PARCONA,28,1.6229,2.4299,68.6412,35.7292,156.4123,1.02574839199832,55.6315936624241,7618.10206329639,81.9253360582454,3.18042226487524,4,1,17.3462584202724,13345.25894,-14.0568669771716,-75.7004484505991
Colombia,Sogamoso,SOGAMOSO,88,0.4247,4.5207,71.8472,31.5576,624.1638,1.15754970419916,8.08844545326818,1941.80141864451,135.713294054907,2.86720997123681,1,2,208.692759288863,11030.36203,5.66771654423416,-72.8858532788761
Mexico,Monterrey,Santa Catarina,164,0.1791,3.2534,73.8524,98.7944,2322.0172,1.06996630488264,6.02607228993255,1030.06759253869,102.31370788435,2.96469833119383,1,2,919.670348007395,6905.469572,25.5746103082262,-100.483863372458
Brasil,Uberlandia,UBERL0NDIA,947,0.2302,6.7641,83.6301,229.1481,7725.1329,1.04117744409642,3.9697400846895,930.255443421935,137.118686888382,3.23996302928773,3,2,4137.046670471,5085.217007,-19.0277714588565,-48.3317370177887
Chile,Valparaiso-Vina del Mar,VILLA ALEMANA,46,0.4794,3.5752,61.9698,247.6347,1486.98,1.05455566484526,29.4666694393278,4389.82668881661,84.1457776752513,2.68057401009832,2,1,96.2443348353078,7639.84329,-33.0672257782753,-71.3297455473393
Brasil,Uberaba,UBERABA,503,0.1112,4.9368,95.5535,48.2037,3716.9136,1.07604840557519,2.20489960414729,654.516109800747,175.468786978994,3.19956636500754,2,6,4547.59934699057,5184.41802,-19.5809312977549,-47.9771620802344
Brasil,Porto Alegre,ALVORADA,105,1.4724,2.8245,61.5945,951.9708,2474.718,1.02519640270697,33.1648006573325,6765.0648274664,119.933677916834,3.01890989988876,2,1,71.551764309349,7349.883348,-29.9951655380455,-51.037492499622
Brasil,Natal,PARNAMIRIM,135,1.0936,4.1197,69.4468,328.2838,1223.1631,1.04150528913905,52.7898152055642,8527.24353632472,96.9014666687358,2.98058647841433,2,1,124.285337511627,6297.191737,-5.91413603229767,-35.2305115345822
Chile,Concepcion,TOMÉ,96,0.1937,3.0282,120.9698,1.6837,153.6987,1.18208270934936,2.2541938600982,896.888926577331,231.611625458848,2.64637482900136,5,3,496.851677145109,10201.6686,-36.6164962804918,-72.8582256019843
Argentina,San Carlos de Bariloche,Bariloche,410,0.0741,4.4184,75.001,4.1441,740.2788,1.11004901142179,0.887878457130965,301.260736820731,193.826096087492,2.98767788962165,1,6,5540.17271225945,4368.334754,-41.5051896507118,-71.5304449361803
Brasil,Cascavel,CASCAVEL,404,0.1924,6.4168,82.8765,125.2191,4259.7207,1.04054943133631,2.2125847575139,652.930496417286,152.830140445515,2.92937980986871,2,6,842.905562675727,4761.888565,-25.0293481616284,-53.3796931536471
Peru,Juliaca,JULIACA,131,0.2469,5.3978,75.307,132.3237,2457.8344,1.0169507932209,8.04350582488356,1545.52310213467,107.596445575511,3.25820800677822,2,2,533.971143119322,8724.973398,-15.448038145926,-70.1858857651055
